[
  {
    "name": "10101 S Stony Island Ave",
    "lat": 41.71,
    "lng": -87.58,
    "first_seen": "2022-07-20",
    "last_seen": "2022-08-30",
    "aliases": []
  },
  {
    "name": "2112 W Peterson Ave",
    "lat": 41.991168,
    "lng": -87.683598,
    "first_seen": "2020-01-02",
    "last_seen": "2026-05-31",
    "aliases": []
  },
  {
    "name": "21st St & Pulaski Rd",
    "lat": 41.853512,
    "lng": -87.724744,
    "first_seen": "2024-04-13",
    "last_seen": "2026-05-30",
    "aliases": []
  },
  {
    "name": "351",
    "lat": 41.93,
    "lng": -87.78,
    "first_seen": "2021-08-04",
    "last_seen": "2021-08-07",
    "aliases": []
  },
  {
    "name": "410",
    "lat": 41.9,
    "lng": -87.69,
    "first_seen": "2023-04-26",
    "last_seen": "2023-04-27",
    "aliases": []
  },
  {
    "name": "532 E 43rd St",
    "lat": 41.82,
    "lng": -87.61,
    "first_seen": "2022-05-19",
    "last_seen": "2022-09-05",
    "aliases": []
  },
  {
    "name": "63rd & Western Ave - south corner",
    "lat": 41.78,
    "lng": -87.68,
    "first_seen": "2022-05-09",
    "last_seen": "2022-09-05",
    "aliases": [
      "63rd & Western Ave - north corner"
    ]
  },
  {
    "name": "63rd St Beach",
    "lat": 41.78097,
    "lng": -87.576256,
    "first_seen": "2020-01-01",
    "last_seen": "2026-05-31",
    "aliases": []
  },
  {
    "name": "900 W Harrison St",
    "lat": 41.874755,
    "lng": -87.649809,
    "first_seen": "2020-01-01",
    "last_seen": "2026-05-31",
    "aliases": []
  },
  {
    "name": "Abbott Park",
    "lat": 41.72,
    "lng": -87.62,
    "first_seen": "2022-05-09",
    "last_seen": "2022-09-05",
    "aliases": [
      "Michigan Ave & 96th St"
    ]
  },
  {
    "name": "Aberdeen St & 103rd St",
    "lat": 41.70704,
    "lng": -87.65022,
    "first_seen": "2024-11-12",
    "last_seen": "2026-05-31",
    "aliases": []
  },
  {
    "name": "Aberdeen St & 106th St",
    "lat": 41.70121,
    "lng": -87.64934,
    "first_seen": "2026-04-03",
    "last_seen": "2026-05-26",
    "aliases": []
  },
  {
    "name": "Aberdeen St & Carroll Ave",
    "lat": 41.88819,
    "lng": -87.654591,
    "first_seen": "2025-06-20",
    "last_seen": "2026-05-31",
    "aliases": []
  },
  {
    "name": "Aberdeen St & Jackson Blvd",
    "lat": 41.877732,
    "lng": -87.654795,
    "first_seen": "2020-01-01",
    "last_seen": "2026-05-31",
    "aliases": []
  },
  {
    "name": "Aberdeen St & Monroe St",
    "lat": 41.880402,
    "lng": -87.655481,
    "first_seen": "2020-01-01",
    "last_seen": "2026-05-31",
    "aliases": []
  },
  {
    "name": "Aberdeen St & Randolph St",
    "lat": 41.884121,
    "lng": -87.654265,
    "first_seen": "2020-01-01",
    "last_seen": "2026-05-31",
    "aliases": []
  },
  {
    "name": "Ada St & 113th Pl",
    "lat": 41.68759,
    "lng": -87.65541,
    "first_seen": "2024-10-22",
    "last_seen": "2026-05-16",
    "aliases": [
      "Ada St & 113th Place"
    ]
  },
  {
    "name": "Ada St & 113th St",
    "lat": 41.688076,
    "lng": -87.65556,
    "first_seen": "2020-10-07",
    "last_seen": "2024-08-26",
    "aliases": []
  },
  {
    "name": "Ada St & 117th St",
    "lat": 41.68,
    "lng": -87.66,
    "first_seen": "2022-07-06",
    "last_seen": "2022-07-31",
    "aliases": []
  },
  {
    "name": "Ada St & 119th St",
    "lat": 41.68,
    "lng": -87.652,
    "first_seen": "2022-07-19",
    "last_seen": "2022-08-02",
    "aliases": []
  },
  {
    "name": "Ada St & 79th St",
    "lat": 41.75,
    "lng": -87.66,
    "first_seen": "2022-05-18",
    "last_seen": "2022-08-28",
    "aliases": [
      "Laflin St & 79th St"
    ]
  },
  {
    "name": "Ada St & 95th St",
    "lat": 41.72,
    "lng": -87.66,
    "first_seen": "2022-05-11",
    "last_seen": "2022-05-11",
    "aliases": []
  },
  {
    "name": "Ada St & Washington Blvd",
    "lat": 41.882833,
    "lng": -87.661199,
    "first_seen": "2020-01-01",
    "last_seen": "2026-05-31",
    "aliases": []
  },
  {
    "name": "Addison Red Line Corral",
    "lat": 41.9472,
    "lng": -87.653952,
    "first_seen": "2024-07-15",
    "last_seen": "2025-08-03",
    "aliases": [
      "Addison Red Line",
      "Wrigley Events Parking Area"
    ]
  },
  {
    "name": "Addison/Racine",
    "lat": 41.947297,
    "lng": -87.659199,
    "first_seen": "2025-05-16",
    "last_seen": "2025-07-01",
    "aliases": []
  },
  {
    "name": "Addison/Racine Corral",
    "lat": 41.947071,
    "lng": -87.659352,
    "first_seen": "2025-07-02",
    "last_seen": "2026-05-31",
    "aliases": []
  },
  {
    "name": "Addison/Sheffield SE Corral",
    "lat": 41.947029,
    "lng": -87.654252,
    "first_seen": "2025-07-02",
    "last_seen": "2026-05-31",
    "aliases": []
  },
  {
    "name": "Addison/Sheffield SW Corral",
    "lat": 41.946954,
    "lng": -87.654411,
    "first_seen": "2025-07-02",
    "last_seen": "2026-05-28",
    "aliases": []
  },
  {
    "name": "Addison/Wilton Corral",
    "lat": 41.947384,
    "lng": -87.653173,
    "first_seen": "2025-07-02",
    "last_seen": "2026-05-31",
    "aliases": []
  },
  {
    "name": "Adler Planetarium",
    "lat": 41.8661,
    "lng": -87.60728,
    "first_seen": "2020-01-01",
    "last_seen": "2026-05-31",
    "aliases": []
  },
  {
    "name": "Al Raby School",
    "lat": 41.89,
    "lng": -87.7125,
    "first_seen": "2022-06-05",
    "last_seen": "2022-06-13",
    "aliases": []
  },
  {
    "name": "Albany Ave & 16th St",
    "lat": 41.859571,
    "lng": -87.701983,
    "first_seen": "2022-02-24",
    "last_seen": "2026-05-31",
    "aliases": []
  },
  {
    "name": "Albany Ave & 26th St",
    "lat": 41.844507,
    "lng": -87.701904,
    "first_seen": "2020-01-04",
    "last_seen": "2026-05-30",
    "aliases": []
  },
  {
    "name": "Albany Ave & Belmont Ave",
    "lat": 41.939744,
    "lng": -87.706522,
    "first_seen": "2021-10-27",
    "last_seen": "2026-05-31",
    "aliases": []
  },
  {
    "name": "Albany Ave & Bloomingdale Ave",
    "lat": 41.914016,
    "lng": -87.705124,
    "first_seen": "2020-01-01",
    "last_seen": "2026-05-31",
    "aliases": []
  },
  {
    "name": "Albany Ave & Douglas Blvd",
    "lat": 41.862502,
    "lng": -87.702502,
    "first_seen": "2022-03-15",
    "last_seen": "2026-05-29",
    "aliases": []
  },
  {
    "name": "Albany Ave & Montrose Ave",
    "lat": 41.961037,
    "lng": -87.705853,
    "first_seen": "2020-01-02",
    "last_seen": "2026-05-31",
    "aliases": []
  },
  {
    "name": "Altgeld Gardens",
    "lat": 41.656793,
    "lng": -87.598863,
    "first_seen": "2021-04-29",
    "last_seen": "2026-05-29",
    "aliases": []
  },
  {
    "name": "Archer (Damen) Ave & 37th St",
    "lat": 41.82672,
    "lng": -87.683147,
    "first_seen": "2020-01-02",
    "last_seen": "2026-05-31",
    "aliases": []
  },
  {
    "name": "Archer Ave & 43rd St",
    "lat": 41.818197,
    "lng": -87.700969,
    "first_seen": "2021-09-30",
    "last_seen": "2026-05-28",
    "aliases": []
  },
  {
    "name": "Archer Ave & 49th St",
    "lat": 41.8042,
    "lng": -87.72082,
    "first_seen": "2024-07-18",
    "last_seen": "2026-05-30",
    "aliases": []
  },
  {
    "name": "Archer Ave & Homan Ave",
    "lat": 41.81153,
    "lng": -87.708851,
    "first_seen": "2024-05-05",
    "last_seen": "2026-05-31",
    "aliases": []
  },
  {
    "name": "Archer Ave & Wentworth Ave",
    "lat": 41.854687,
    "lng": -87.630853,
    "first_seen": "2025-02-08",
    "last_seen": "2026-05-31",
    "aliases": [
      "Archer & Wentworth"
    ]
  },
  {
    "name": "Archer Park",
    "lat": 41.8,
    "lng": -87.739545,
    "first_seen": "2022-06-10",
    "last_seen": "2022-08-18",
    "aliases": []
  },
  {
    "name": "Artesian Ave & 55th St",
    "lat": 41.792404,
    "lng": -87.687475,
    "first_seen": "2021-10-06",
    "last_seen": "2026-05-31",
    "aliases": []
  },
  {
    "name": "Artesian Ave & 71st St",
    "lat": 41.764346,
    "lng": -87.684418,
    "first_seen": "2023-10-06",
    "last_seen": "2026-05-22",
    "aliases": []
  },
  {
    "name": "Artesian Ave & Hubbard St",
    "lat": 41.88951,
    "lng": -87.688209,
    "first_seen": "2020-01-01",
    "last_seen": "2026-05-31",
    "aliases": []
  },
  {
    "name": "Artesian Ave & Marquette Rd",
    "lat": 41.772033,
    "lng": -87.684638,
    "first_seen": "2023-10-08",
    "last_seen": "2026-05-30",
    "aliases": []
  },
  {
    "name": "Ashland Ave & 13th St",
    "lat": 41.865235,
    "lng": -87.66651,
    "first_seen": "2020-01-01",
    "last_seen": "2026-05-31",
    "aliases": []
  },
  {
    "name": "Ashland Ave & 45th St",
    "lat": 41.81,
    "lng": -87.660667,
    "first_seen": "2022-05-12",
    "last_seen": "2022-08-30",
    "aliases": [
      "Ashland Ave & 45th St - midblock south"
    ]
  },
  {
    "name": "Ashland Ave & 46th St",
    "lat": 41.81,
    "lng": -87.668333,
    "first_seen": "2022-05-22",
    "last_seen": "2022-08-11",
    "aliases": []
  },
  {
    "name": "Ashland Ave & 50th St",
    "lat": 41.803022,
    "lng": -87.664696,
    "first_seen": "2020-01-02",
    "last_seen": "2026-05-29",
    "aliases": []
  },
  {
    "name": "Ashland Ave & 63rd St",
    "lat": 41.779374,
    "lng": -87.664842,
    "first_seen": "2020-01-21",
    "last_seen": "2026-05-27",
    "aliases": []
  },
  {
    "name": "Ashland Ave & 66th St",
    "lat": 41.774079,
    "lng": -87.663793,
    "first_seen": "2020-04-08",
    "last_seen": "2026-05-24",
    "aliases": []
  },
  {
    "name": "Ashland Ave & 69th St",
    "lat": 41.768722,
    "lng": -87.664072,
    "first_seen": "2020-01-03",
    "last_seen": "2020-10-19",
    "aliases": []
  },
  {
    "name": "Ashland Ave & 71st St",
    "lat": 41.77,
    "lng": -87.66,
    "first_seen": "2022-05-18",
    "last_seen": "2022-08-15",
    "aliases": []
  },
  {
    "name": "Ashland Ave & 73rd St",
    "lat": 41.761042,
    "lng": -87.662857,
    "first_seen": "2020-07-26",
    "last_seen": "2022-08-01",
    "aliases": []
  },
  {
    "name": "Ashland Ave & 74th St",
    "lat": 41.759232,
    "lng": -87.663544,
    "first_seen": "2020-08-22",
    "last_seen": "2026-05-31",
    "aliases": []
  },
  {
    "name": "Ashland Ave & 76th St",
    "lat": 41.76,
    "lng": -87.66,
    "first_seen": "2022-05-12",
    "last_seen": "2022-09-04",
    "aliases": []
  },
  {
    "name": "Ashland Ave & 78th St",
    "lat": 41.752505,
    "lng": -87.663787,
    "first_seen": "2020-07-29",
    "last_seen": "2026-05-27",
    "aliases": []
  },
  {
    "name": "Ashland Ave & Augusta Blvd",
    "lat": 41.899631,
    "lng": -87.66796,
    "first_seen": "2020-01-01",
    "last_seen": "2026-05-31",
    "aliases": []
  },
  {
    "name": "Ashland Ave & Belle Plaine Ave",
    "lat": 41.956026,
    "lng": -87.668884,
    "first_seen": "2020-01-01",
    "last_seen": "2026-05-31",
    "aliases": []
  },
  {
    "name": "Ashland Ave & Blackhawk St",
    "lat": 41.907064,
    "lng": -87.667249,
    "first_seen": "2020-01-01",
    "last_seen": "2026-05-31",
    "aliases": []
  },
  {
    "name": "Ashland Ave & Chicago Ave",
    "lat": 41.895872,
    "lng": -87.667718,
    "first_seen": "2020-01-01",
    "last_seen": "2026-05-31",
    "aliases": []
  },
  {
    "name": "Ashland Ave & Division St",
    "lat": 41.903403,
    "lng": -87.667904,
    "first_seen": "2020-01-01",
    "last_seen": "2025-10-23",
    "aliases": []
  },
  {
    "name": "Ashland Ave & Garfield Blvd",
    "lat": 41.792946,
    "lng": -87.664466,
    "first_seen": "2020-01-01",
    "last_seen": "2026-05-31",
    "aliases": []
  },
  {
    "name": "Ashland Ave & Grace St",
    "lat": 41.950694,
    "lng": -87.668699,
    "first_seen": "2020-01-01",
    "last_seen": "2026-05-31",
    "aliases": []
  },
  {
    "name": "Ashland Ave & Grand Ave",
    "lat": 41.891075,
    "lng": -87.666623,
    "first_seen": "2020-01-01",
    "last_seen": "2026-05-31",
    "aliases": []
  },
  {
    "name": "Ashland Ave & Lake St",
    "lat": 41.885926,
    "lng": -87.66717,
    "first_seen": "2020-01-01",
    "last_seen": "2026-05-31",
    "aliases": []
  },
  {
    "name": "Ashland Ave & McDowell Ave",
    "lat": 41.809132,
    "lng": -87.664305,
    "first_seen": "2020-01-02",
    "last_seen": "2026-05-31",
    "aliases": []
  },
  {
    "name": "Ashland Ave & Pershing Rd",
    "lat": 41.823464,
    "lng": -87.66558,
    "first_seen": "2020-01-02",
    "last_seen": "2026-05-30",
    "aliases": []
  },
  {
    "name": "Ashland Ave & Wellington Ave",
    "lat": 41.936079,
    "lng": -87.669818,
    "first_seen": "2020-01-01",
    "last_seen": "2026-05-31",
    "aliases": []
  },
  {
    "name": "Ashland Ave & Wrightwood Ave",
    "lat": 41.928828,
    "lng": -87.668511,
    "first_seen": "2020-01-01",
    "last_seen": "2026-05-31",
    "aliases": []
  },
  {
    "name": "Augusta Blvd & Laramie Ave",
    "lat": 41.899157,
    "lng": -87.757147,
    "first_seen": "2021-11-05",
    "last_seen": "2026-03-22",
    "aliases": []
  },
  {
    "name": "Austin Ave & Milwaukee Ave",
    "lat": 41.98736,
    "lng": -87.77805,
    "first_seen": "2025-02-21",
    "last_seen": "2026-05-31",
    "aliases": []
  },
  {
    "name": "Austin Ave & Roscoe St",
    "lat": 41.94,
    "lng": -87.78,
    "first_seen": "2022-05-10",
    "last_seen": "2022-06-13",
    "aliases": [
      "Melvina Ave & Belmont Ave"
    ]
  },
  {
    "name": "Austin Ave & Wellington Ave - midblock",
    "lat": 41.938333,
    "lng": -87.78,
    "first_seen": "2022-05-18",
    "last_seen": "2022-06-08",
    "aliases": []
  },
  {
    "name": "Austin Ave & Wrightwood Ave",
    "lat": 41.93,
    "lng": -87.77963,
    "first_seen": "2022-05-10",
    "last_seen": "2022-06-12",
    "aliases": []
  },
  {
    "name": "Austin Blvd & Chicago Ave",
    "lat": 41.894881,
    "lng": -87.774647,
    "first_seen": "2020-01-01",
    "last_seen": "2026-05-31",
    "aliases": []
  },
  {
    "name": "Austin Blvd & Lake St",
    "lat": 41.887932,
    "lng": -87.774359,
    "first_seen": "2020-01-03",
    "last_seen": "2026-05-31",
    "aliases": []
  },
  {
    "name": "Austin Blvd & Madison St",
    "lat": 41.880294,
    "lng": -87.774415,
    "first_seen": "2020-01-06",
    "last_seen": "2026-05-31",
    "aliases": []
  },
  {
    "name": "Austin Branch Chicago Public Library",
    "lat": 41.89,
    "lng": -87.77,
    "first_seen": "2022-05-14",
    "last_seen": "2022-09-01",
    "aliases": [
      "Waller Ave & Chicago Ave"
    ]
  },
  {
    "name": "Ave H & 110th St",
    "lat": 41.69553,
    "lng": -87.53304,
    "first_seen": "2026-05-08",
    "last_seen": "2026-05-24",
    "aliases": []
  },
  {
    "name": "Ave L & 114th",
    "lat": 41.688032,
    "lng": -87.53641,
    "first_seen": "2025-04-22",
    "last_seen": "2026-05-29",
    "aliases": []
  },
  {
    "name": "Avenue J & 102nd St",
    "lat": 41.71,
    "lng": -87.53,
    "first_seen": "2022-06-05",
    "last_seen": "2022-06-05",
    "aliases": []
  },
  {
    "name": "Avenue J & 106th St",
    "lat": 41.7,
    "lng": -87.53,
    "first_seen": "2022-06-19",
    "last_seen": "2022-08-14",
    "aliases": []
  },
  {
    "name": "Avenue J & 112th St",
    "lat": 41.69,
    "lng": -87.53,
    "first_seen": "2022-05-13",
    "last_seen": "2022-08-13",
    "aliases": []
  },
  {
    "name": "Avenue L & 114th St",
    "lat": 41.689274,
    "lng": -87.538708,
    "first_seen": "2021-01-09",
    "last_seen": "2025-03-18",
    "aliases": []
  },
  {
    "name": "Avenue M & 132nd St",
    "lat": 41.66,
    "lng": -87.54,
    "first_seen": "2022-05-13",
    "last_seen": "2022-08-06",
    "aliases": []
  },
  {
    "name": "Avenue O & 118th St",
    "lat": 41.681276,
    "lng": -87.538187,
    "first_seen": "2020-09-29",
    "last_seen": "2026-05-20",
    "aliases": []
  },
  {
    "name": "Avenue O & 134th St",
    "lat": 41.651906,
    "lng": -87.539893,
    "first_seen": "2020-09-23",
    "last_seen": "2026-05-19",
    "aliases": []
  },
  {
    "name": "Avers Ave & 103rd St",
    "lat": 41.705861,
    "lng": -87.717092,
    "first_seen": "2026-04-13",
    "last_seen": "2026-05-31",
    "aliases": []
  },
  {
    "name": "Avers Ave & 16th St",
    "lat": 41.85909,
    "lng": -87.72121,
    "first_seen": "2024-08-29",
    "last_seen": "2026-05-28",
    "aliases": []
  },
  {
    "name": "Avers Ave & Archer Ave",
    "lat": 41.800159,
    "lng": -87.72,
    "first_seen": "2022-05-13",
    "last_seen": "2022-09-02",
    "aliases": []
  },
  {
    "name": "Avers Ave & Belmont Ave",
    "lat": 41.9394,
    "lng": -87.723567,
    "first_seen": "2020-01-01",
    "last_seen": "2026-05-31",
    "aliases": []
  },
  {
    "name": "Avers Ave & Foster Ave",
    "lat": 41.97541,
    "lng": -87.72452,
    "first_seen": "2025-05-10",
    "last_seen": "2026-05-31",
    "aliases": []
  },
  {
    "name": "Avers Ave & Ogden Ave",
    "lat": 41.85,
    "lng": -87.72,
    "first_seen": "2022-06-05",
    "last_seen": "2022-06-06",
    "aliases": []
  },
  {
    "name": "Avondale Ave & Addison St",
    "lat": 41.95,
    "lng": -87.72,
    "first_seen": "2022-05-09",
    "last_seen": "2022-06-14",
    "aliases": [
      "Avers Ave & Irving Park Rd"
    ]
  },
  {
    "name": "Avondale Ave & Irving Park Rd",
    "lat": 41.95339,
    "lng": -87.731989,
    "first_seen": "2020-01-01",
    "last_seen": "2026-05-31",
    "aliases": []
  },
  {
    "name": "Back of the Yards Park",
    "lat": 41.8025,
    "lng": -87.66,
    "first_seen": "2022-07-21",
    "last_seen": "2022-08-16",
    "aliases": []
  },
  {
    "name": "Baltimore Ave & 132nd St",
    "lat": 41.66,
    "lng": -87.55,
    "first_seen": "2022-06-03",
    "last_seen": "2022-07-03",
    "aliases": []
  },
  {
    "name": "Baltimore Ave & 133rd St",
    "lat": 41.653336,
    "lng": -87.547161,
    "first_seen": "2022-06-08",
    "last_seen": "2026-05-26",
    "aliases": []
  },
  {
    "name": "Baltimore Ave & 87th St",
    "lat": 41.737347,
    "lng": -87.548497,
    "first_seen": "2020-08-19",
    "last_seen": "2026-05-31",
    "aliases": []
  },
  {
    "name": "Base - 2132 W Hubbard",
    "lat": 41.896126,
    "lng": -87.68888,
    "first_seen": "2022-05-19",
    "last_seen": "2024-01-25",
    "aliases": []
  },
  {
    "name": "Base - 2132 W Hubbard Warehouse",
    "lat": 41.886583,
    "lng": -87.691378,
    "first_seen": "2020-12-10",
    "last_seen": "2022-09-19",
    "aliases": []
  },
  {
    "name": "Bell Ave & 95th St",
    "lat": 41.72,
    "lng": -87.68,
    "first_seen": "2022-05-09",
    "last_seen": "2022-09-05",
    "aliases": [
      "Hamilton Ave & 95th St"
    ]
  },
  {
    "name": "Bennett Ave & 79th St",
    "lat": 41.751793,
    "lng": -87.578493,
    "first_seen": "2020-01-31",
    "last_seen": "2026-05-30",
    "aliases": []
  },
  {
    "name": "Bennett Ave & 96th St",
    "lat": 41.72,
    "lng": -87.58,
    "first_seen": "2022-05-10",
    "last_seen": "2022-08-01",
    "aliases": []
  },
  {
    "name": "Bensley Ave & 103rd St",
    "lat": 41.71,
    "lng": -87.56,
    "first_seen": "2022-06-05",
    "last_seen": "2022-08-01",
    "aliases": [
      "Torrence Ave & 103rd St"
    ]
  },
  {
    "name": "Benson Ave & Church St",
    "lat": 42.048208,
    "lng": -87.683483,
    "first_seen": "2020-01-01",
    "last_seen": "2026-05-31",
    "aliases": []
  },
  {
    "name": "Bernard St & Elston Ave",
    "lat": 41.949908,
    "lng": -87.713922,
    "first_seen": "2020-01-01",
    "last_seen": "2026-05-31",
    "aliases": []
  },
  {
    "name": "Bernard St & Peterson Ave",
    "lat": 41.99044,
    "lng": -87.715229,
    "first_seen": "2024-03-29",
    "last_seen": "2026-05-29",
    "aliases": []
  },
  {
    "name": "Big Marsh Park",
    "lat": 41.685888,
    "lng": -87.573781,
    "first_seen": "2020-09-25",
    "last_seen": "2026-05-28",
    "aliases": []
  },
  {
    "name": "Bishop St & 46th St",
    "lat": 41.81,
    "lng": -87.66,
    "first_seen": "2022-05-28",
    "last_seen": "2022-09-03",
    "aliases": []
  },
  {
    "name": "Bissell St & Armitage Ave",
    "lat": 41.918359,
    "lng": -87.652205,
    "first_seen": "2020-01-01",
    "last_seen": "2026-05-31",
    "aliases": []
  },
  {
    "name": "Bissell St & Armitage Ave - Charging",
    "lat": 41.91809,
    "lng": -87.652192,
    "first_seen": "2022-03-16",
    "last_seen": "2022-04-01",
    "aliases": []
  },
  {
    "name": "Bissell St & Armitage Ave*",
    "lat": 41.918315,
    "lng": -87.652185,
    "first_seen": "2022-04-14",
    "last_seen": "2026-03-10",
    "aliases": []
  },
  {
    "name": "Blackstone Ave & 53rd St",
    "lat": 41.79962,
    "lng": -87.590129,
    "first_seen": "2026-01-02",
    "last_seen": "2026-05-31",
    "aliases": []
  },
  {
    "name": "Blackstone Ave & 59th St",
    "lat": 41.787883,
    "lng": -87.590468,
    "first_seen": "2023-09-14",
    "last_seen": "2026-05-31",
    "aliases": []
  },
  {
    "name": "Blackstone Ave & Hyde Park Blvd",
    "lat": 41.802572,
    "lng": -87.590366,
    "first_seen": "2020-01-02",
    "last_seen": "2026-05-31",
    "aliases": []
  },
  {
    "name": "Bloomingdale Ave & Harlem Ave",
    "lat": 41.910582,
    "lng": -87.808796,
    "first_seen": "2021-09-14",
    "last_seen": "2024-05-27",
    "aliases": []
  },
  {
    "name": "Blue Island Ave & 18th St",
    "lat": 41.857544,
    "lng": -87.661548,
    "first_seen": "2020-01-01",
    "last_seen": "2026-05-31",
    "aliases": []
  },
  {
    "name": "Bosworth Ave & Howard St",
    "lat": 42.019536,
    "lng": -87.669554,
    "first_seen": "2020-01-02",
    "last_seen": "2026-05-31",
    "aliases": []
  },
  {
    "name": "Bradley Park",
    "lat": 41.717917,
    "lng": -87.564537,
    "first_seen": "2020-10-24",
    "last_seen": "2025-11-28",
    "aliases": []
  },
  {
    "name": "Brighton Park Branch Chicago Library",
    "lat": 41.8185,
    "lng": -87.7,
    "first_seen": "2022-05-12",
    "last_seen": "2022-09-01",
    "aliases": []
  },
  {
    "name": "Broadway & Argyle St",
    "lat": 41.973893,
    "lng": -87.659711,
    "first_seen": "2020-01-01",
    "last_seen": "2026-05-31",
    "aliases": []
  },
  {
    "name": "Broadway & Barry Ave",
    "lat": 41.937596,
    "lng": -87.6441,
    "first_seen": "2020-01-01",
    "last_seen": "2026-05-31",
    "aliases": []
  },
  {
    "name": "Broadway & Belmont Ave",
    "lat": 41.940101,
    "lng": -87.645459,
    "first_seen": "2020-01-01",
    "last_seen": "2026-05-31",
    "aliases": []
  },
  {
    "name": "Broadway & Berwyn Ave",
    "lat": 41.978349,
    "lng": -87.65977,
    "first_seen": "2020-01-01",
    "last_seen": "2026-05-31",
    "aliases": []
  },
  {
    "name": "Broadway & Cornelia Ave",
    "lat": 41.945525,
    "lng": -87.646443,
    "first_seen": "2020-01-01",
    "last_seen": "2026-05-31",
    "aliases": []
  },
  {
    "name": "Broadway & Cuyler Ave",
    "lat": 41.955418,
    "lng": -87.6515,
    "first_seen": "2025-09-18",
    "last_seen": "2026-05-31",
    "aliases": []
  },
  {
    "name": "Broadway & Granville Ave",
    "lat": 41.994762,
    "lng": -87.660279,
    "first_seen": "2020-01-01",
    "last_seen": "2026-05-31",
    "aliases": []
  },
  {
    "name": "Broadway & Oakdale Ave",
    "lat": 41.93558,
    "lng": -87.64405,
    "first_seen": "2025-07-08",
    "last_seen": "2026-05-31",
    "aliases": []
  },
  {
    "name": "Broadway & Ridge Ave",
    "lat": 41.984035,
    "lng": -87.660269,
    "first_seen": "2020-01-01",
    "last_seen": "2026-05-31",
    "aliases": []
  },
  {
    "name": "Broadway & Roscoe Ave",
    "lat": 41.9436,
    "lng": -87.645321,
    "first_seen": "2025-10-16",
    "last_seen": "2026-05-31",
    "aliases": []
  },
  {
    "name": "Broadway & Sheridan Rd",
    "lat": 41.952821,
    "lng": -87.649998,
    "first_seen": "2020-01-01",
    "last_seen": "2026-05-31",
    "aliases": []
  },
  {
    "name": "Broadway & Sunnyside Ave",
    "lat": 41.963419,
    "lng": -87.65607,
    "first_seen": "2025-08-08",
    "last_seen": "2026-05-31",
    "aliases": []
  },
  {
    "name": "Broadway & Thorndale Ave",
    "lat": 41.989732,
    "lng": -87.660132,
    "first_seen": "2020-01-01",
    "last_seen": "2026-05-31",
    "aliases": []
  },
  {
    "name": "Broadway & Waveland Ave",
    "lat": 41.94907,
    "lng": -87.64863,
    "first_seen": "2020-01-01",
    "last_seen": "2026-05-31",
    "aliases": []
  },
  {
    "name": "Broadway & Wilson Ave",
    "lat": 41.965216,
    "lng": -87.658164,
    "first_seen": "2020-01-01",
    "last_seen": "2026-05-31",
    "aliases": [
      "Broadway & Wilson - Truman College Vaccination Site"
    ]
  },
  {
    "name": "Buckingham - Fountain",
    "lat": 41.876626,
    "lng": -87.620464,
    "first_seen": "2023-09-29",
    "last_seen": "2023-10-06",
    "aliases": []
  },
  {
    "name": "Buckingham Fountain",
    "lat": 41.874648,
    "lng": -87.621427,
    "first_seen": "2020-01-01",
    "last_seen": "2025-11-04",
    "aliases": []
  },
  {
    "name": "Buckingham Fountain (Columbus/Balbo)",
    "lat": 41.871493,
    "lng": -87.62352,
    "first_seen": "2023-09-20",
    "last_seen": "2023-09-29",
    "aliases": []
  },
  {
    "name": "Buckingham Fountain (Michigan/11th)",
    "lat": 41.876423,
    "lng": -87.620339,
    "first_seen": "2023-08-11",
    "last_seen": "2023-08-11",
    "aliases": []
  },
  {
    "name": "Buckingham Fountain (Temp)",
    "lat": 41.869171,
    "lng": -87.623844,
    "first_seen": "2022-06-19",
    "last_seen": "2023-09-20",
    "aliases": []
  },
  {
    "name": "Budlong Woods Library",
    "lat": 41.98367,
    "lng": -87.696419,
    "first_seen": "2020-01-02",
    "last_seen": "2026-05-31",
    "aliases": []
  },
  {
    "name": "Buffalo Ave & 133rd St",
    "lat": 41.65,
    "lng": -87.54,
    "first_seen": "2022-06-13",
    "last_seen": "2022-08-06",
    "aliases": []
  },
  {
    "name": "Buffalo Ave & 89th St",
    "lat": 41.73,
    "lng": -87.54,
    "first_seen": "2022-06-03",
    "last_seen": "2022-07-30",
    "aliases": []
  },
  {
    "name": "Burley Ave & 85th St",
    "lat": 41.74117,
    "lng": -87.54518,
    "first_seen": "2024-07-13",
    "last_seen": "2026-05-29",
    "aliases": []
  },
  {
    "name": "Burley Ave & 91st St",
    "lat": 41.730539,
    "lng": -87.54558,
    "first_seen": "2024-07-06",
    "last_seen": "2026-05-30",
    "aliases": []
  },
  {
    "name": "Burling St & Armitage Ave",
    "lat": 41.918078,
    "lng": -87.647279,
    "first_seen": "2025-08-28",
    "last_seen": "2025-10-09",
    "aliases": []
  },
  {
    "name": "Burling St & Diversey Pkwy",
    "lat": 41.93313,
    "lng": -87.64776,
    "first_seen": "2020-01-01",
    "last_seen": "2026-05-31",
    "aliases": [
      "Burling St & Diversey Pkwy*",
      "Burling St (Halsted) & Diversey Pkwy (Temp)"
    ]
  },
  {
    "name": "Burnham Greenway & 105th St",
    "lat": 41.704604,
    "lng": -87.528278,
    "first_seen": "2020-09-18",
    "last_seen": "2026-05-31",
    "aliases": []
  },
  {
    "name": "Burnham Greenway & 112th St",
    "lat": 41.691784,
    "lng": -87.530474,
    "first_seen": "2022-02-13",
    "last_seen": "2026-05-31",
    "aliases": []
  },
  {
    "name": "Burnham Harbor",
    "lat": 41.856946,
    "lng": -87.613609,
    "first_seen": "2020-01-01",
    "last_seen": "2026-05-31",
    "aliases": []
  },
  {
    "name": "California & 16th St",
    "lat": 41.859398,
    "lng": -87.696474,
    "first_seen": "2022-02-27",
    "last_seen": "2026-03-09",
    "aliases": []
  },
  {
    "name": "California Ave & 16th St",
    "lat": 41.85926,
    "lng": -87.695499,
    "first_seen": "2026-03-13",
    "last_seen": "2026-05-31",
    "aliases": []
  },
  {
    "name": "California Ave & 21st St",
    "lat": 41.853798,
    "lng": -87.695754,
    "first_seen": "2020-01-02",
    "last_seen": "2026-05-31",
    "aliases": []
  },
  {
    "name": "California Ave & 23rd Pl",
    "lat": 41.849115,
    "lng": -87.695139,
    "first_seen": "2020-01-02",
    "last_seen": "2026-05-31",
    "aliases": []
  },
  {
    "name": "California Ave & 26th St",
    "lat": 41.843823,
    "lng": -87.695006,
    "first_seen": "2020-01-02",
    "last_seen": "2026-05-29",
    "aliases": []
  },
  {
    "name": "California Ave & 29th St",
    "lat": 41.840185,
    "lng": -87.693371,
    "first_seen": "2021-11-30",
    "last_seen": "2026-05-08",
    "aliases": []
  },
  {
    "name": "California Ave & 36th St",
    "lat": 41.828771,
    "lng": -87.693061,
    "first_seen": "2021-09-29",
    "last_seen": "2026-05-31",
    "aliases": []
  },
  {
    "name": "California Ave & 41st St",
    "lat": 41.818669,
    "lng": -87.69441,
    "first_seen": "2024-05-08",
    "last_seen": "2026-05-31",
    "aliases": []
  },
  {
    "name": "California Ave & 71st St",
    "lat": 41.764748,
    "lng": -87.69312,
    "first_seen": "2023-09-29",
    "last_seen": "2026-05-30",
    "aliases": []
  },
  {
    "name": "California Ave & Altgeld St",
    "lat": 41.92668,
    "lng": -87.697682,
    "first_seen": "2020-01-01",
    "last_seen": "2026-05-31",
    "aliases": []
  },
  {
    "name": "California Ave & Byron St",
    "lat": 41.95216,
    "lng": -87.698054,
    "first_seen": "2020-01-01",
    "last_seen": "2026-05-31",
    "aliases": []
  },
  {
    "name": "California Ave & Cortez St",
    "lat": 41.900367,
    "lng": -87.696709,
    "first_seen": "2020-01-01",
    "last_seen": "2026-05-31",
    "aliases": []
  },
  {
    "name": "California Ave & Devon Ave - NW",
    "lat": 42.0,
    "lng": -87.7,
    "first_seen": "2022-05-09",
    "last_seen": "2022-06-15",
    "aliases": [
      "California Ave & Devon Ave - NE",
      "Sacramento Ave & Devon Ave"
    ]
  },
  {
    "name": "California Ave & Division St",
    "lat": 41.903027,
    "lng": -87.697481,
    "first_seen": "2020-01-01",
    "last_seen": "2026-05-31",
    "aliases": []
  },
  {
    "name": "California Ave & Fletcher St",
    "lat": 41.93842,
    "lng": -87.697997,
    "first_seen": "2020-01-02",
    "last_seen": "2026-05-31",
    "aliases": []
  },
  {
    "name": "California Ave & Francis Pl",
    "lat": 41.918503,
    "lng": -87.697425,
    "first_seen": "2020-01-01",
    "last_seen": "2026-05-31",
    "aliases": [
      "California Ave & Francis Pl (Temp)"
    ]
  },
  {
    "name": "California Ave & Granville Ave",
    "lat": 41.994176,
    "lng": -87.699489,
    "first_seen": "2023-10-20",
    "last_seen": "2026-05-31",
    "aliases": []
  },
  {
    "name": "California Ave & Lake St",
    "lat": 41.884456,
    "lng": -87.696277,
    "first_seen": "2020-01-01",
    "last_seen": "2026-05-31",
    "aliases": []
  },
  {
    "name": "California Ave & Madison St",
    "lat": 41.88098,
    "lng": -87.69598,
    "first_seen": "2024-06-15",
    "last_seen": "2026-05-29",
    "aliases": []
  },
  {
    "name": "California Ave & Marquette Rd",
    "lat": 41.77096,
    "lng": -87.691992,
    "first_seen": "2021-10-28",
    "last_seen": "2026-05-30",
    "aliases": []
  },
  {
    "name": "California Ave & Milwaukee Ave",
    "lat": 41.922688,
    "lng": -87.697146,
    "first_seen": "2020-01-01",
    "last_seen": "2026-05-31",
    "aliases": []
  },
  {
    "name": "California Ave & Montrose Ave",
    "lat": 41.961066,
    "lng": -87.695435,
    "first_seen": "2020-01-02",
    "last_seen": "2026-05-31",
    "aliases": []
  },
  {
    "name": "California Ave & North Ave",
    "lat": 41.910316,
    "lng": -87.697176,
    "first_seen": "2020-01-01",
    "last_seen": "2026-05-31",
    "aliases": []
  },
  {
    "name": "California Ave & Ogden Ave",
    "lat": 41.86,
    "lng": -87.7,
    "first_seen": "2022-05-10",
    "last_seen": "2022-06-05",
    "aliases": []
  },
  {
    "name": "California Ave & Pershing Rd",
    "lat": 41.82,
    "lng": -87.695,
    "first_seen": "2022-05-22",
    "last_seen": "2022-08-28",
    "aliases": []
  },
  {
    "name": "California Ave & Touhy Ave",
    "lat": 42.012036,
    "lng": -87.700411,
    "first_seen": "2024-03-29",
    "last_seen": "2026-05-31",
    "aliases": []
  },
  {
    "name": "California Ave & Touhy Ave - NW",
    "lat": 42.01,
    "lng": -87.7,
    "first_seen": "2022-05-10",
    "last_seen": "2022-06-14",
    "aliases": [
      "California Ave & Touhy Ave - SW",
      "Sacramento Ave & Greenleaf Ave"
    ]
  },
  {
    "name": "California Ave & Winona St",
    "lat": 41.973103,
    "lng": -87.698581,
    "first_seen": "2021-11-03",
    "last_seen": "2026-05-31",
    "aliases": []
  },
  {
    "name": "California Blvd & 29th St",
    "lat": 41.84024,
    "lng": -87.69413,
    "first_seen": "2026-02-19",
    "last_seen": "2026-05-27",
    "aliases": []
  },
  {
    "name": "Calumet Ave & 103rd St",
    "lat": 41.71,
    "lng": -87.618571,
    "first_seen": "2022-06-02",
    "last_seen": "2022-09-05",
    "aliases": []
  },
  {
    "name": "Calumet Ave & 18th St",
    "lat": 41.857632,
    "lng": -87.619437,
    "first_seen": "2020-01-01",
    "last_seen": "2026-05-31",
    "aliases": []
  },
  {
    "name": "Calumet Ave & 21st St",
    "lat": 41.854179,
    "lng": -87.619165,
    "first_seen": "2020-01-02",
    "last_seen": "2026-05-31",
    "aliases": []
  },
  {
    "name": "Calumet Ave & 33rd St",
    "lat": 41.83488,
    "lng": -87.617934,
    "first_seen": "2020-01-01",
    "last_seen": "2026-05-31",
    "aliases": []
  },
  {
    "name": "Calumet Ave & 35th St",
    "lat": 41.831377,
    "lng": -87.618041,
    "first_seen": "2020-01-02",
    "last_seen": "2026-05-31",
    "aliases": []
  },
  {
    "name": "Calumet Ave & 51st St",
    "lat": 41.802262,
    "lng": -87.618078,
    "first_seen": "2020-01-01",
    "last_seen": "2026-05-31",
    "aliases": []
  },
  {
    "name": "Calumet Ave & 71st St",
    "lat": 41.765531,
    "lng": -87.616934,
    "first_seen": "2020-01-03",
    "last_seen": "2026-05-31",
    "aliases": []
  },
  {
    "name": "Calumet Ave & Garfield Blvd",
    "lat": 41.790741,
    "lng": -87.62,
    "first_seen": "2022-05-22",
    "last_seen": "2022-09-05",
    "aliases": []
  },
  {
    "name": "Calumet Park",
    "lat": 41.71372,
    "lng": -87.530829,
    "first_seen": "2021-04-17",
    "last_seen": "2026-05-30",
    "aliases": []
  },
  {
    "name": "Campbell Ave & 51st St",
    "lat": 41.800632,
    "lng": -87.68783,
    "first_seen": "2021-10-20",
    "last_seen": "2026-05-28",
    "aliases": []
  },
  {
    "name": "Campbell Ave & Augusta Blvd",
    "lat": 41.899566,
    "lng": -87.689491,
    "first_seen": "2023-04-27",
    "last_seen": "2026-05-31",
    "aliases": []
  },
  {
    "name": "Campbell Ave & Fullerton Ave",
    "lat": 41.924532,
    "lng": -87.689064,
    "first_seen": "2020-01-01",
    "last_seen": "2026-05-31",
    "aliases": []
  },
  {
    "name": "Campbell Ave & Irving Park Rd",
    "lat": 41.952744,
    "lng": -87.690597,
    "first_seen": "2022-01-25",
    "last_seen": "2026-05-31",
    "aliases": []
  },
  {
    "name": "Campbell Ave & Montrose Ave",
    "lat": 41.961524,
    "lng": -87.691166,
    "first_seen": "2020-01-01",
    "last_seen": "2026-05-31",
    "aliases": []
  },
  {
    "name": "Campbell Ave & Montrose Ave (Temp)",
    "lat": 41.96153,
    "lng": -87.692923,
    "first_seen": "2022-10-28",
    "last_seen": "2023-03-01",
    "aliases": []
  },
  {
    "name": "Campbell Ave & North Ave",
    "lat": 41.910533,
    "lng": -87.689557,
    "first_seen": "2020-01-01",
    "last_seen": "2026-05-31",
    "aliases": []
  },
  {
    "name": "Canal St & Adams St",
    "lat": 41.879288,
    "lng": -87.639919,
    "first_seen": "2020-01-01",
    "last_seen": "2026-05-31",
    "aliases": []
  },
  {
    "name": "Canal St & Harrison St",
    "lat": 41.874257,
    "lng": -87.639579,
    "first_seen": "2020-01-01",
    "last_seen": "2026-05-31",
    "aliases": []
  },
  {
    "name": "Canal St & Jackson Blvd",
    "lat": 41.877625,
    "lng": -87.639627,
    "first_seen": "2020-01-01",
    "last_seen": "2026-05-31",
    "aliases": []
  },
  {
    "name": "Canal St & Lake St",
    "lat": 41.88597,
    "lng": -87.639992,
    "first_seen": "2025-12-31",
    "last_seen": "2026-05-31",
    "aliases": []
  },
  {
    "name": "Canal St & Madison St",
    "lat": 41.882304,
    "lng": -87.639773,
    "first_seen": "2020-01-01",
    "last_seen": "2026-05-31",
    "aliases": []
  },
  {
    "name": "Canal St & Monroe St",
    "lat": 41.881988,
    "lng": -87.639566,
    "first_seen": "2020-01-01",
    "last_seen": "2026-05-31",
    "aliases": []
  },
  {
    "name": "Canal St & Taylor St",
    "lat": 41.870246,
    "lng": -87.639473,
    "first_seen": "2020-01-01",
    "last_seen": "2026-05-31",
    "aliases": []
  },
  {
    "name": "Cannon Dr & Fullerton Ave",
    "lat": 41.926752,
    "lng": -87.634432,
    "first_seen": "2020-01-01",
    "last_seen": "2026-05-31",
    "aliases": []
  },
  {
    "name": "Carpenter St & 63rd St",
    "lat": 41.779878,
    "lng": -87.650912,
    "first_seen": "2020-02-09",
    "last_seen": "2026-04-24",
    "aliases": []
  },
  {
    "name": "Carpenter St & Fulton St",
    "lat": 41.88668,
    "lng": -87.65315,
    "first_seen": "2025-09-29",
    "last_seen": "2026-05-31",
    "aliases": []
  },
  {
    "name": "Carpenter St & Huron St",
    "lat": 41.894558,
    "lng": -87.653447,
    "first_seen": "2020-01-01",
    "last_seen": "2026-05-31",
    "aliases": []
  },
  {
    "name": "Carpenter St & Lake St Public Rack",
    "lat": 41.885587,
    "lng": -87.653188,
    "first_seen": "2026-04-09",
    "last_seen": "2026-05-31",
    "aliases": []
  },
  {
    "name": "Central & Elston",
    "lat": 41.985502,
    "lng": -87.768201,
    "first_seen": "2025-03-17",
    "last_seen": "2026-05-31",
    "aliases": []
  },
  {
    "name": "Central Ave & Adams St",
    "lat": 41.88,
    "lng": -87.76,
    "first_seen": "2022-08-21",
    "last_seen": "2022-08-21",
    "aliases": []
  },
  {
    "name": "Central Ave & Altgeld St",
    "lat": 41.925814,
    "lng": -87.766364,
    "first_seen": "2024-04-12",
    "last_seen": "2026-05-31",
    "aliases": []
  },
  {
    "name": "Central Ave & Chicago Ave",
    "lat": 41.894957,
    "lng": -87.764907,
    "first_seen": "2020-01-01",
    "last_seen": "2026-05-28",
    "aliases": []
  },
  {
    "name": "Central Ave & Congress Pkwy",
    "lat": 41.87,
    "lng": -87.76,
    "first_seen": "2022-05-13",
    "last_seen": "2022-08-27",
    "aliases": []
  },
  {
    "name": "Central Ave & Corcoran Pl",
    "lat": 41.89,
    "lng": -87.769706,
    "first_seen": "2022-05-09",
    "last_seen": "2022-09-04",
    "aliases": []
  },
  {
    "name": "Central Ave & George St",
    "lat": 41.93,
    "lng": -87.77,
    "first_seen": "2022-05-09",
    "last_seen": "2022-06-14",
    "aliases": []
  },
  {
    "name": "Central Ave & Harrison St",
    "lat": 41.872994,
    "lng": -87.764419,
    "first_seen": "2020-01-03",
    "last_seen": "2026-05-28",
    "aliases": []
  },
  {
    "name": "Central Ave & Lake St",
    "lat": 41.887667,
    "lng": -87.765467,
    "first_seen": "2020-01-03",
    "last_seen": "2026-05-31",
    "aliases": []
  },
  {
    "name": "Central Ave & Madison St",
    "lat": 41.880123,
    "lng": -87.763209,
    "first_seen": "2020-01-03",
    "last_seen": "2026-05-31",
    "aliases": []
  },
  {
    "name": "Central Ave & North Ave",
    "lat": 41.91,
    "lng": -87.769167,
    "first_seen": "2022-05-10",
    "last_seen": "2022-06-06",
    "aliases": []
  },
  {
    "name": "Central Ave & Parker Ave",
    "lat": 41.930084,
    "lng": -87.768125,
    "first_seen": "2021-07-31",
    "last_seen": "2026-05-30",
    "aliases": []
  },
  {
    "name": "Central Ave & Roscoe St",
    "lat": 41.940958,
    "lng": -87.768711,
    "first_seen": "2021-08-06",
    "last_seen": "2026-05-30",
    "aliases": []
  },
  {
    "name": "Central Ave & Wellington Ave",
    "lat": 41.934895,
    "lng": -87.766766,
    "first_seen": "2024-01-01",
    "last_seen": "2026-05-30",
    "aliases": []
  },
  {
    "name": "Central Park & Augusta Blvd",
    "lat": 41.899139,
    "lng": -87.717237,
    "first_seen": "2021-10-07",
    "last_seen": "2026-04-21",
    "aliases": []
  },
  {
    "name": "Central Park Ave & 24th St",
    "lat": 41.848135,
    "lng": -87.715051,
    "first_seen": "2020-01-20",
    "last_seen": "2026-05-31",
    "aliases": []
  },
  {
    "name": "Central Park Ave & 66th St",
    "lat": 41.773264,
    "lng": -87.713105,
    "first_seen": "2024-04-17",
    "last_seen": "2026-05-29",
    "aliases": []
  },
  {
    "name": "Central Park Ave & Ardmore Ave",
    "lat": 41.986616,
    "lng": -87.718752,
    "first_seen": "2024-04-19",
    "last_seen": "2026-05-31",
    "aliases": []
  },
  {
    "name": "Central Park Ave & Augusta Blvd",
    "lat": 41.89894,
    "lng": -87.71649,
    "first_seen": "2026-04-25",
    "last_seen": "2026-05-30",
    "aliases": []
  },
  {
    "name": "Central Park Ave & Bloomingdale Ave",
    "lat": 41.914166,
    "lng": -87.716751,
    "first_seen": "2020-01-01",
    "last_seen": "2026-05-31",
    "aliases": []
  },
  {
    "name": "Central Park Ave & Douglas Blvd",
    "lat": 41.861322,
    "lng": -87.717671,
    "first_seen": "2021-07-10",
    "last_seen": "2026-05-28",
    "aliases": []
  },
  {
    "name": "Central Park Ave & Elbridge Ave",
    "lat": 41.935338,
    "lng": -87.716875,
    "first_seen": "2020-01-01",
    "last_seen": "2026-05-31",
    "aliases": []
  },
  {
    "name": "Central Park Ave & Fillmore St",
    "lat": 41.87,
    "lng": -87.715,
    "first_seen": "2022-05-20",
    "last_seen": "2022-05-20",
    "aliases": []
  },
  {
    "name": "Central Park Ave & North Ave",
    "lat": 41.909654,
    "lng": -87.716626,
    "first_seen": "2020-01-01",
    "last_seen": "2026-05-31",
    "aliases": []
  },
  {
    "name": "Central Park Ave & Ogden Ave",
    "lat": 41.85403,
    "lng": -87.715109,
    "first_seen": "2020-01-08",
    "last_seen": "2026-05-31",
    "aliases": []
  },
  {
    "name": "Central Park Ave & Ohio St",
    "lat": 41.891071,
    "lng": -87.717947,
    "first_seen": "2021-10-16",
    "last_seen": "2026-05-31",
    "aliases": []
  },
  {
    "name": "Central Park Ave & Washington Blvd",
    "lat": 41.882677,
    "lng": -87.715429,
    "first_seen": "2024-04-12",
    "last_seen": "2026-05-30",
    "aliases": []
  },
  {
    "name": "Central Park Blvd & 5th Ave",
    "lat": 41.875694,
    "lng": -87.715461,
    "first_seen": "2020-01-15",
    "last_seen": "2026-05-31",
    "aliases": []
  },
  {
    "name": "Central St & Girard Ave",
    "lat": 42.064291,
    "lng": -87.686156,
    "first_seen": "2020-01-02",
    "last_seen": "2026-05-31",
    "aliases": []
  },
  {
    "name": "Central St Metra",
    "lat": 42.063612,
    "lng": -87.698714,
    "first_seen": "2020-01-01",
    "last_seen": "2026-05-31",
    "aliases": []
  },
  {
    "name": "Champlain Ave & 134th St",
    "lat": 41.66,
    "lng": -87.61,
    "first_seen": "2022-05-17",
    "last_seen": "2022-06-28",
    "aliases": []
  },
  {
    "name": "Chappel Ave & 71st St",
    "lat": 41.77,
    "lng": -87.579231,
    "first_seen": "2022-05-23",
    "last_seen": "2022-09-04",
    "aliases": []
  },
  {
    "name": "Chase Ave & Touhy Ave - NW",
    "lat": 42.01,
    "lng": -87.69,
    "first_seen": "2022-05-10",
    "last_seen": "2022-06-10",
    "aliases": [
      "Chase Ave & Touhy Ave - NE"
    ]
  },
  {
    "name": "Cherry Ave & Blackhawk St",
    "lat": 41.907223,
    "lng": -87.655625,
    "first_seen": "2020-01-02",
    "last_seen": "2026-05-31",
    "aliases": []
  },
  {
    "name": "Chicago Ave & Dempster St",
    "lat": 42.041697,
    "lng": -87.680684,
    "first_seen": "2020-01-02",
    "last_seen": "2020-12-01",
    "aliases": []
  },
  {
    "name": "Chicago Ave & Sheridan Rd",
    "lat": 42.05049,
    "lng": -87.677821,
    "first_seen": "2020-01-01",
    "last_seen": "2026-05-31",
    "aliases": []
  },
  {
    "name": "Chicago Ave & Washington St",
    "lat": 42.032557,
    "lng": -87.67912,
    "first_seen": "2020-01-02",
    "last_seen": "2026-05-31",
    "aliases": []
  },
  {
    "name": "Chicago State University",
    "lat": 41.718967,
    "lng": -87.608331,
    "first_seen": "2021-03-23",
    "last_seen": "2026-05-29",
    "aliases": []
  },
  {
    "name": "Christiana Ave & 55th St",
    "lat": 41.79,
    "lng": -87.71,
    "first_seen": "2022-05-19",
    "last_seen": "2022-09-06",
    "aliases": [
      "Senka \"Edward Duke\" Park"
    ]
  },
  {
    "name": "Christiana Ave & Archer Ave",
    "lat": 41.81,
    "lng": -87.71,
    "first_seen": "2022-05-11",
    "last_seen": "2022-09-07",
    "aliases": []
  },
  {
    "name": "Christiana Ave & Belmont Ave",
    "lat": 41.94,
    "lng": -87.71,
    "first_seen": "2022-05-09",
    "last_seen": "2022-06-14",
    "aliases": []
  },
  {
    "name": "Christiana Ave & Lawrence Ave",
    "lat": 41.968351,
    "lng": -87.711818,
    "first_seen": "2020-01-01",
    "last_seen": "2026-05-31",
    "aliases": []
  },
  {
    "name": "Cicero Ave & Altgeld St",
    "lat": 41.93,
    "lng": -87.75,
    "first_seen": "2022-05-14",
    "last_seen": "2022-06-10",
    "aliases": []
  },
  {
    "name": "Cicero Ave & Cortland St - midblock",
    "lat": 41.92,
    "lng": -87.749286,
    "first_seen": "2022-05-13",
    "last_seen": "2022-06-13",
    "aliases": []
  },
  {
    "name": "Cicero Ave & Flournoy St",
    "lat": 41.872132,
    "lng": -87.746628,
    "first_seen": "2020-01-07",
    "last_seen": "2026-05-26",
    "aliases": []
  },
  {
    "name": "Cicero Ave & Grace St",
    "lat": 41.949876,
    "lng": -87.748546,
    "first_seen": "2021-07-22",
    "last_seen": "2024-05-04",
    "aliases": []
  },
  {
    "name": "Cicero Ave & Lake St",
    "lat": 41.886855,
    "lng": -87.745294,
    "first_seen": "2020-03-03",
    "last_seen": "2026-05-31",
    "aliases": []
  },
  {
    "name": "Cicero Ave & North Ave",
    "lat": 41.91,
    "lng": -87.75,
    "first_seen": "2022-05-09",
    "last_seen": "2022-06-13",
    "aliases": [
      "Cicero Ave & Le Moyne St - midblock"
    ]
  },
  {
    "name": "Cicero Ave & Quincy St",
    "lat": 41.877615,
    "lng": -87.745404,
    "first_seen": "2020-01-14",
    "last_seen": "2026-05-27",
    "aliases": []
  },
  {
    "name": "Cicero Ave & Roscoe Ave",
    "lat": 41.942428,
    "lng": -87.747315,
    "first_seen": "2023-12-08",
    "last_seen": "2026-05-31",
    "aliases": []
  },
  {
    "name": "Cicero Ave & Roscoe St",
    "lat": 41.94,
    "lng": -87.75,
    "first_seen": "2022-05-10",
    "last_seen": "2022-06-07",
    "aliases": []
  },
  {
    "name": "Cicero Ave & Wellington Ave",
    "lat": 41.936705,
    "lng": -87.747528,
    "first_seen": "2022-05-09",
    "last_seen": "2026-05-31",
    "aliases": []
  },
  {
    "name": "Cicero Ave & Wrightwood Ave",
    "lat": 41.928122,
    "lng": -87.747074,
    "first_seen": "2022-05-09",
    "last_seen": "2026-05-31",
    "aliases": []
  },
  {
    "name": "City Rack - Albany Ave & 103rd St",
    "lat": 41.71,
    "lng": -87.7,
    "first_seen": "2022-05-25",
    "last_seen": "2022-09-05",
    "aliases": [
      "Albany Ave & 103rd St",
      "Kedzie & 103rd St - East"
    ]
  },
  {
    "name": "Cityfront Plaza Dr & Pioneer Ct",
    "lat": 41.890553,
    "lng": -87.622076,
    "first_seen": "2020-01-01",
    "last_seen": "2026-05-31",
    "aliases": []
  },
  {
    "name": "Claremont Ave & 71st St",
    "lat": 41.76,
    "lng": -87.68,
    "first_seen": "2022-05-19",
    "last_seen": "2022-09-06",
    "aliases": []
  },
  {
    "name": "Claremont Ave & Hirsch St",
    "lat": 41.907783,
    "lng": -87.68586,
    "first_seen": "2020-01-01",
    "last_seen": "2026-05-31",
    "aliases": []
  },
  {
    "name": "Clarendon Ave & Gordon Ter",
    "lat": 41.957863,
    "lng": -87.649503,
    "first_seen": "2020-01-01",
    "last_seen": "2026-05-31",
    "aliases": []
  },
  {
    "name": "Clarendon Ave & Junior Ter",
    "lat": 41.960996,
    "lng": -87.64959,
    "first_seen": "2020-01-01",
    "last_seen": "2026-05-31",
    "aliases": []
  },
  {
    "name": "Clarendon Ave & Leland Ave",
    "lat": 41.967952,
    "lng": -87.650003,
    "first_seen": "2020-01-01",
    "last_seen": "2026-05-31",
    "aliases": []
  },
  {
    "name": "Clark St & 9th St (AMLI)",
    "lat": 41.870819,
    "lng": -87.631222,
    "first_seen": "2020-01-01",
    "last_seen": "2026-05-31",
    "aliases": []
  },
  {
    "name": "Clark St & Arlington Pl",
    "lat": 41.926939,
    "lng": -87.641483,
    "first_seen": "2025-08-28",
    "last_seen": "2026-05-31",
    "aliases": []
  },
  {
    "name": "Clark St & Armitage Ave",
    "lat": 41.918303,
    "lng": -87.636292,
    "first_seen": "2020-01-01",
    "last_seen": "2026-05-31",
    "aliases": []
  },
  {
    "name": "Clark St & Berwyn Ave",
    "lat": 41.978012,
    "lng": -87.668305,
    "first_seen": "2020-01-01",
    "last_seen": "2026-05-31",
    "aliases": []
  },
  {
    "name": "Clark St & Bryn Mawr Ave",
    "lat": 41.983583,
    "lng": -87.669157,
    "first_seen": "2020-01-01",
    "last_seen": "2026-05-31",
    "aliases": []
  },
  {
    "name": "Clark St & Chicago Ave",
    "lat": 41.896737,
    "lng": -87.630883,
    "first_seen": "2020-01-01",
    "last_seen": "2026-05-31",
    "aliases": []
  },
  {
    "name": "Clark St & Columbia Ave",
    "lat": 42.004448,
    "lng": -87.672402,
    "first_seen": "2020-01-02",
    "last_seen": "2026-05-31",
    "aliases": []
  },
  {
    "name": "Clark St & Drummond Pl",
    "lat": 41.931245,
    "lng": -87.644324,
    "first_seen": "2020-01-01",
    "last_seen": "2026-05-31",
    "aliases": []
  },
  {
    "name": "Clark St & Eddy St",
    "lat": 41.946281,
    "lng": -87.656268,
    "first_seen": "2025-09-11",
    "last_seen": "2026-05-31",
    "aliases": []
  },
  {
    "name": "Clark St & Elm St",
    "lat": 41.902957,
    "lng": -87.631361,
    "first_seen": "2020-01-01",
    "last_seen": "2026-05-31",
    "aliases": []
  },
  {
    "name": "Clark St & Elmdale Ave",
    "lat": 41.990798,
    "lng": -87.669728,
    "first_seen": "2020-01-01",
    "last_seen": "2026-05-31",
    "aliases": []
  },
  {
    "name": "Clark St & Fletcher St",
    "lat": 41.938921,
    "lng": -87.650323,
    "first_seen": "2025-09-26",
    "last_seen": "2026-05-31",
    "aliases": []
  },
  {
    "name": "Clark St & Grace St",
    "lat": 41.950793,
    "lng": -87.659176,
    "first_seen": "2020-01-01",
    "last_seen": "2026-05-31",
    "aliases": []
  },
  {
    "name": "Clark St & Ida B Wells Dr",
    "lat": 41.875939,
    "lng": -87.630618,
    "first_seen": "2020-01-01",
    "last_seen": "2026-05-31",
    "aliases": []
  },
  {
    "name": "Clark St & Jarvis Ave",
    "lat": 42.015954,
    "lng": -87.674997,
    "first_seen": "2020-01-01",
    "last_seen": "2026-05-31",
    "aliases": []
  },
  {
    "name": "Clark St & Lake St",
    "lat": 41.88601,
    "lng": -87.630898,
    "first_seen": "2020-01-01",
    "last_seen": "2026-05-31",
    "aliases": []
  },
  {
    "name": "Clark St & Leland Ave",
    "lat": 41.967085,
    "lng": -87.667346,
    "first_seen": "2020-01-01",
    "last_seen": "2026-05-31",
    "aliases": []
  },
  {
    "name": "Clark St & Lincoln Ave",
    "lat": 41.915696,
    "lng": -87.634607,
    "first_seen": "2020-01-01",
    "last_seen": "2026-05-31",
    "aliases": []
  },
  {
    "name": "Clark St & Lunt Ave",
    "lat": 42.009024,
    "lng": -87.674147,
    "first_seen": "2020-01-01",
    "last_seen": "2026-05-31",
    "aliases": []
  },
  {
    "name": "Clark St & Montrose Ave",
    "lat": 41.961579,
    "lng": -87.666067,
    "first_seen": "2020-01-01",
    "last_seen": "2026-05-31",
    "aliases": []
  },
  {
    "name": "Clark St & Newport St",
    "lat": 41.944528,
    "lng": -87.654693,
    "first_seen": "2020-01-01",
    "last_seen": "2026-05-31",
    "aliases": []
  },
  {
    "name": "Clark St & North Ave",
    "lat": 41.911969,
    "lng": -87.631955,
    "first_seen": "2020-01-01",
    "last_seen": "2026-05-31",
    "aliases": []
  },
  {
    "name": "Clark St & Randolph St",
    "lat": 41.884595,
    "lng": -87.631831,
    "first_seen": "2020-01-01",
    "last_seen": "2024-01-24",
    "aliases": []
  },
  {
    "name": "Clark St & Schiller St",
    "lat": 41.907991,
    "lng": -87.631514,
    "first_seen": "2020-01-01",
    "last_seen": "2026-05-31",
    "aliases": []
  },
  {
    "name": "Clark St & Schreiber Ave",
    "lat": 41.99929,
    "lng": -87.671208,
    "first_seen": "2020-01-01",
    "last_seen": "2026-05-31",
    "aliases": []
  },
  {
    "name": "Clark St & Touhy Ave",
    "lat": 42.01256,
    "lng": -87.674344,
    "first_seen": "2020-01-02",
    "last_seen": "2026-05-31",
    "aliases": []
  },
  {
    "name": "Clark St & Washington St",
    "lat": 41.88301,
    "lng": -87.630998,
    "first_seen": "2025-11-19",
    "last_seen": "2026-05-31",
    "aliases": []
  },
  {
    "name": "Clark St & Wellington Ave",
    "lat": 41.936494,
    "lng": -87.647548,
    "first_seen": "2020-01-01",
    "last_seen": "2026-05-31",
    "aliases": []
  },
  {
    "name": "Clark St & Winnemac Ave",
    "lat": 41.973343,
    "lng": -87.667866,
    "first_seen": "2020-01-01",
    "last_seen": "2026-05-31",
    "aliases": []
  },
  {
    "name": "Clark St & Wrightwood Ave",
    "lat": 41.929548,
    "lng": -87.643128,
    "first_seen": "2020-01-01",
    "last_seen": "2026-05-31",
    "aliases": []
  },
  {
    "name": "Clark/Eddy",
    "lat": 41.946598,
    "lng": -87.656098,
    "first_seen": "2025-05-16",
    "last_seen": "2025-07-02",
    "aliases": []
  },
  {
    "name": "Clark/Newport Corral",
    "lat": 41.944942,
    "lng": -87.654611,
    "first_seen": "2025-05-16",
    "last_seen": "2026-05-31",
    "aliases": [
      "Clark/Newport"
    ]
  },
  {
    "name": "Clark/Racine",
    "lat": 41.950504,
    "lng": -87.659299,
    "first_seen": "2025-05-16",
    "last_seen": "2025-07-01",
    "aliases": []
  },
  {
    "name": "Clark/Racine Corral",
    "lat": 41.95044,
    "lng": -87.659319,
    "first_seen": "2025-07-02",
    "last_seen": "2026-05-31",
    "aliases": []
  },
  {
    "name": "Clifton Ave & Armitage Ave",
    "lat": 41.918214,
    "lng": -87.656946,
    "first_seen": "2020-01-01",
    "last_seen": "2026-05-31",
    "aliases": []
  },
  {
    "name": "Clinton St & 18th St",
    "lat": 41.857953,
    "lng": -87.640835,
    "first_seen": "2020-01-02",
    "last_seen": "2026-05-31",
    "aliases": []
  },
  {
    "name": "Clinton St & Jackson Blvd",
    "lat": 41.87832,
    "lng": -87.640943,
    "first_seen": "2020-01-01",
    "last_seen": "2026-05-31",
    "aliases": []
  },
  {
    "name": "Clinton St & Lake St",
    "lat": 41.885616,
    "lng": -87.641832,
    "first_seen": "2020-01-01",
    "last_seen": "2026-05-31",
    "aliases": []
  },
  {
    "name": "Clinton St & Madison St",
    "lat": 41.882462,
    "lng": -87.641154,
    "first_seen": "2020-01-01",
    "last_seen": "2026-05-31",
    "aliases": []
  },
  {
    "name": "Clinton St & Polk St",
    "lat": 41.871469,
    "lng": -87.640944,
    "first_seen": "2020-01-02",
    "last_seen": "2026-05-30",
    "aliases": []
  },
  {
    "name": "Clinton St & Roosevelt Rd",
    "lat": 41.867119,
    "lng": -87.641081,
    "first_seen": "2020-01-01",
    "last_seen": "2026-05-31",
    "aliases": []
  },
  {
    "name": "Clinton St & Tilden St",
    "lat": 41.875884,
    "lng": -87.640785,
    "first_seen": "2020-01-01",
    "last_seen": "2026-05-31",
    "aliases": []
  },
  {
    "name": "Clinton St & Washington Blvd",
    "lat": 41.88337,
    "lng": -87.641195,
    "first_seen": "2020-01-01",
    "last_seen": "2026-05-31",
    "aliases": [
      "Clinton St & Washington Blvd 2"
    ]
  },
  {
    "name": "Clybourn Ave & Division St",
    "lat": 41.904603,
    "lng": -87.64056,
    "first_seen": "2020-01-01",
    "last_seen": "2026-05-31",
    "aliases": []
  },
  {
    "name": "Clyde Ave & 87th St",
    "lat": 41.737161,
    "lng": -87.572725,
    "first_seen": "2020-09-10",
    "last_seen": "2026-05-27",
    "aliases": []
  },
  {
    "name": "Colfax Ave & 83rd St",
    "lat": 41.74,
    "lng": -87.56,
    "first_seen": "2022-05-31",
    "last_seen": "2022-08-31",
    "aliases": [
      "Marquette Ave & 83rd St"
    ]
  },
  {
    "name": "Columbus Ave & 79th St",
    "lat": 41.74912,
    "lng": -87.704263,
    "first_seen": "2023-11-17",
    "last_seen": "2026-05-30",
    "aliases": []
  },
  {
    "name": "Columbus Ave & 83rd Pl",
    "lat": 41.741345,
    "lng": -87.71368,
    "first_seen": "2024-01-02",
    "last_seen": "2026-05-29",
    "aliases": []
  },
  {
    "name": "Columbus Dr & Randolph St",
    "lat": 41.884693,
    "lng": -87.619536,
    "first_seen": "2020-01-01",
    "last_seen": "2026-05-31",
    "aliases": []
  },
  {
    "name": "Commercial Ave & 100th St",
    "lat": 41.713316,
    "lng": -87.55113,
    "first_seen": "2021-01-25",
    "last_seen": "2026-05-30",
    "aliases": []
  },
  {
    "name": "Commercial Ave & 130th St",
    "lat": 41.659177,
    "lng": -87.550769,
    "first_seen": "2020-10-04",
    "last_seen": "2026-05-31",
    "aliases": []
  },
  {
    "name": "Commercial Ave & 83rd St",
    "lat": 41.74465,
    "lng": -87.55122,
    "first_seen": "2020-01-02",
    "last_seen": "2026-05-31",
    "aliases": []
  },
  {
    "name": "Commercial Ave & 89th St",
    "lat": 41.73,
    "lng": -87.55,
    "first_seen": "2022-05-09",
    "last_seen": "2022-09-03",
    "aliases": [
      "Brandon Ave & 91st St",
      "Houston Ave & 91st St"
    ]
  },
  {
    "name": "Commercial Ave & 90th St",
    "lat": 41.731854,
    "lng": -87.552029,
    "first_seen": "2024-08-21",
    "last_seen": "2026-05-30",
    "aliases": []
  },
  {
    "name": "Commercial Ave & 97th St",
    "lat": 41.71893,
    "lng": -87.55112,
    "first_seen": "2024-08-06",
    "last_seen": "2026-05-29",
    "aliases": []
  },
  {
    "name": "Conservatory Dr & Lake St",
    "lat": 41.885488,
    "lng": -87.716855,
    "first_seen": "2020-01-02",
    "last_seen": "2026-05-31",
    "aliases": []
  },
  {
    "name": "Constance Ave & 95th St",
    "lat": 41.722259,
    "lng": -87.578972,
    "first_seen": "2020-09-03",
    "last_seen": "2026-05-28",
    "aliases": []
  },
  {
    "name": "Corliss Ave & 103rd St",
    "lat": 41.71,
    "lng": -87.6,
    "first_seen": "2022-08-16",
    "last_seen": "2022-08-17",
    "aliases": []
  },
  {
    "name": "Corliss Ave & 133rd St",
    "lat": 41.65,
    "lng": -87.6,
    "first_seen": "2022-07-12",
    "last_seen": "2022-08-02",
    "aliases": []
  },
  {
    "name": "Cornell Ave & Hyde Park Blvd",
    "lat": 41.802427,
    "lng": -87.586924,
    "first_seen": "2020-01-01",
    "last_seen": "2026-05-31",
    "aliases": []
  },
  {
    "name": "Cornell Dr & Hayes Dr",
    "lat": 41.780587,
    "lng": -87.584877,
    "first_seen": "2020-01-11",
    "last_seen": "2022-12-11",
    "aliases": []
  },
  {
    "name": "Cottage Grove & 84th St",
    "lat": 41.74,
    "lng": -87.602,
    "first_seen": "2022-05-10",
    "last_seen": "2022-06-23",
    "aliases": []
  },
  {
    "name": "Cottage Grove & 85th St",
    "lat": 41.74,
    "lng": -87.6025,
    "first_seen": "2022-06-03",
    "last_seen": "2022-08-19",
    "aliases": []
  },
  {
    "name": "Cottage Grove Ave & 107th St",
    "lat": 41.70015,
    "lng": -87.60793,
    "first_seen": "2026-05-01",
    "last_seen": "2026-05-29",
    "aliases": []
  },
  {
    "name": "Cottage Grove Ave & 111th Pl",
    "lat": 41.691699,
    "lng": -87.610002,
    "first_seen": "2020-08-26",
    "last_seen": "2026-05-30",
    "aliases": []
  },
  {
    "name": "Cottage Grove Ave & 111th St",
    "lat": 41.69,
    "lng": -87.61,
    "first_seen": "2022-05-10",
    "last_seen": "2022-09-02",
    "aliases": []
  },
  {
    "name": "Cottage Grove Ave & 43rd St",
    "lat": 41.816512,
    "lng": -87.606594,
    "first_seen": "2020-01-01",
    "last_seen": "2026-05-31",
    "aliases": []
  },
  {
    "name": "Cottage Grove Ave & 47th St",
    "lat": 41.80986,
    "lng": -87.606758,
    "first_seen": "2020-01-01",
    "last_seen": "2025-09-15",
    "aliases": []
  },
  {
    "name": "Cottage Grove Ave & 49th St",
    "lat": 41.806273,
    "lng": -87.606642,
    "first_seen": "2025-09-17",
    "last_seen": "2026-05-31",
    "aliases": []
  },
  {
    "name": "Cottage Grove Ave & 51st St",
    "lat": 41.803037,
    "lng": -87.606612,
    "first_seen": "2020-01-01",
    "last_seen": "2026-05-31",
    "aliases": []
  },
  {
    "name": "Cottage Grove Ave & 63rd St",
    "lat": 41.780566,
    "lng": -87.605957,
    "first_seen": "2020-01-02",
    "last_seen": "2026-05-31",
    "aliases": []
  },
  {
    "name": "Cottage Grove Ave & 67th St",
    "lat": 41.773733,
    "lng": -87.605635,
    "first_seen": "2020-01-02",
    "last_seen": "2026-05-27",
    "aliases": []
  },
  {
    "name": "Cottage Grove Ave & 71st St",
    "lat": 41.765721,
    "lng": -87.604977,
    "first_seen": "2020-01-06",
    "last_seen": "2026-05-29",
    "aliases": []
  },
  {
    "name": "Cottage Grove Ave & 75th St",
    "lat": 41.76,
    "lng": -87.61,
    "first_seen": "2022-05-23",
    "last_seen": "2022-08-27",
    "aliases": []
  },
  {
    "name": "Cottage Grove Ave & 78th St",
    "lat": 41.753177,
    "lng": -87.605024,
    "first_seen": "2020-01-06",
    "last_seen": "2026-05-31",
    "aliases": []
  },
  {
    "name": "Cottage Grove Ave & 83rd St",
    "lat": 41.743499,
    "lng": -87.604851,
    "first_seen": "2020-01-09",
    "last_seen": "2026-05-29",
    "aliases": []
  },
  {
    "name": "Cottage Grove Ave & 87th St",
    "lat": 41.74,
    "lng": -87.61,
    "first_seen": "2022-05-09",
    "last_seen": "2022-09-02",
    "aliases": []
  },
  {
    "name": "Cottage Grove Ave & 89th Pl",
    "lat": 41.73,
    "lng": -87.6,
    "first_seen": "2022-05-21",
    "last_seen": "2022-09-01",
    "aliases": [
      "Cottage Grove Ave & 91st St",
      "Cottage Grove Ave & 92nd St"
    ]
  },
  {
    "name": "Cottage Grove Ave & 98th St",
    "lat": 41.72,
    "lng": -87.6,
    "first_seen": "2022-05-24",
    "last_seen": "2022-09-09",
    "aliases": []
  },
  {
    "name": "Cottage Grove Ave & Oakwood Blvd",
    "lat": 41.823,
    "lng": -87.607108,
    "first_seen": "2020-01-02",
    "last_seen": "2026-05-31",
    "aliases": []
  },
  {
    "name": "Cumberland Ave & Catherine Ave",
    "lat": 41.97732,
    "lng": -87.83674,
    "first_seen": "2024-12-28",
    "last_seen": "2026-05-31",
    "aliases": []
  },
  {
    "name": "DIVVY CASSETTE REPAIR MOBILE STATION",
    "lat": 41.886029,
    "lng": -87.614999,
    "first_seen": "2021-07-07",
    "last_seen": "2022-10-15",
    "aliases": []
  },
  {
    "name": "Daley Center Plaza",
    "lat": 41.884219,
    "lng": -87.629631,
    "first_seen": "2020-01-01",
    "last_seen": "2026-05-31",
    "aliases": []
  },
  {
    "name": "Daley Center Plaza Corral",
    "lat": 41.884193,
    "lng": -87.629689,
    "first_seen": "2025-05-01",
    "last_seen": "2025-06-07",
    "aliases": []
  },
  {
    "name": "Damen Ave & 33rd St",
    "lat": 41.832215,
    "lng": -87.677624,
    "first_seen": "2021-10-10",
    "last_seen": "2026-05-28",
    "aliases": []
  },
  {
    "name": "Damen Ave & 47th St",
    "lat": 41.81,
    "lng": -87.679091,
    "first_seen": "2022-05-09",
    "last_seen": "2022-08-31",
    "aliases": []
  },
  {
    "name": "Damen Ave & 51st St",
    "lat": 41.800909,
    "lng": -87.674678,
    "first_seen": "2020-01-01",
    "last_seen": "2026-05-31",
    "aliases": []
  },
  {
    "name": "Damen Ave & 59th St",
    "lat": 41.785878,
    "lng": -87.674086,
    "first_seen": "2020-04-03",
    "last_seen": "2026-05-27",
    "aliases": []
  },
  {
    "name": "Damen Ave & 74th St",
    "lat": 41.759274,
    "lng": -87.67364,
    "first_seen": "2022-05-07",
    "last_seen": "2026-05-31",
    "aliases": []
  },
  {
    "name": "Damen Ave & 77th St",
    "lat": 41.754045,
    "lng": -87.673349,
    "first_seen": "2024-06-19",
    "last_seen": "2026-05-29",
    "aliases": []
  },
  {
    "name": "Damen Ave & 80th St",
    "lat": 41.75,
    "lng": -87.67,
    "first_seen": "2022-08-24",
    "last_seen": "2022-08-24",
    "aliases": []
  },
  {
    "name": "Damen Ave & 81st St",
    "lat": 41.746525,
    "lng": -87.673061,
    "first_seen": "2023-11-09",
    "last_seen": "2026-05-31",
    "aliases": []
  },
  {
    "name": "Damen Ave & 87th St",
    "lat": 41.736043,
    "lng": -87.672865,
    "first_seen": "2023-11-14",
    "last_seen": "2026-05-31",
    "aliases": []
  },
  {
    "name": "Damen Ave & Charleston St",
    "lat": 41.920079,
    "lng": -87.677873,
    "first_seen": "2020-01-01",
    "last_seen": "2026-05-31",
    "aliases": []
  },
  {
    "name": "Damen Ave & Chicago Ave",
    "lat": 41.895729,
    "lng": -87.677176,
    "first_seen": "2020-01-01",
    "last_seen": "2026-05-31",
    "aliases": []
  },
  {
    "name": "Damen Ave & Chicago Ave Public Rack",
    "lat": 41.895811,
    "lng": -87.678512,
    "first_seen": "2026-01-07",
    "last_seen": "2026-05-31",
    "aliases": []
  },
  {
    "name": "Damen Ave & Clybourn Ave",
    "lat": 41.931932,
    "lng": -87.677872,
    "first_seen": "2020-01-02",
    "last_seen": "2026-05-31",
    "aliases": []
  },
  {
    "name": "Damen Ave & Cortland St",
    "lat": 41.915982,
    "lng": -87.677324,
    "first_seen": "2020-01-01",
    "last_seen": "2026-05-31",
    "aliases": []
  },
  {
    "name": "Damen Ave & Coulter St",
    "lat": 41.849235,
    "lng": -87.675647,
    "first_seen": "2020-01-01",
    "last_seen": "2026-05-31",
    "aliases": [
      "Damen Ave/Coulter St"
    ]
  },
  {
    "name": "Damen Ave & Cullerton St",
    "lat": 41.854978,
    "lng": -87.675696,
    "first_seen": "2020-01-01",
    "last_seen": "2026-05-31",
    "aliases": []
  },
  {
    "name": "Damen Ave & Division St",
    "lat": 41.903268,
    "lng": -87.678441,
    "first_seen": "2020-01-01",
    "last_seen": "2026-05-31",
    "aliases": []
  },
  {
    "name": "Damen Ave & Evergreen Ave",
    "lat": 41.90605,
    "lng": -87.67758,
    "first_seen": "2025-10-17",
    "last_seen": "2026-05-31",
    "aliases": []
  },
  {
    "name": "Damen Ave & Foster Ave",
    "lat": 41.975648,
    "lng": -87.679561,
    "first_seen": "2020-01-01",
    "last_seen": "2026-05-31",
    "aliases": []
  },
  {
    "name": "Damen Ave & Grand Ave",
    "lat": 41.892039,
    "lng": -87.676877,
    "first_seen": "2020-01-01",
    "last_seen": "2025-11-06",
    "aliases": []
  },
  {
    "name": "Damen Ave & Lake St",
    "lat": 41.884962,
    "lng": -87.676832,
    "first_seen": "2024-08-05",
    "last_seen": "2026-05-31",
    "aliases": []
  },
  {
    "name": "Damen Ave & Leland Ave",
    "lat": 41.967072,
    "lng": -87.679026,
    "first_seen": "2020-01-01",
    "last_seen": "2026-05-31",
    "aliases": []
  },
  {
    "name": "Damen Ave & Madison St",
    "lat": 41.881388,
    "lng": -87.67492,
    "first_seen": "2020-01-01",
    "last_seen": "2026-05-31",
    "aliases": []
  },
  {
    "name": "Damen Ave & Melrose Ave",
    "lat": 41.940583,
    "lng": -87.678511,
    "first_seen": "2020-01-02",
    "last_seen": "2026-05-31",
    "aliases": []
  },
  {
    "name": "Damen Ave & Ohio St",
    "lat": 41.892396,
    "lng": -87.676886,
    "first_seen": "2025-11-06",
    "last_seen": "2026-05-31",
    "aliases": []
  },
  {
    "name": "Damen Ave & Pershing Rd",
    "lat": 41.823185,
    "lng": -87.676609,
    "first_seen": "2020-01-02",
    "last_seen": "2026-05-31",
    "aliases": []
  },
  {
    "name": "Damen Ave & Pierce Ave",
    "lat": 41.909366,
    "lng": -87.677675,
    "first_seen": "2020-01-01",
    "last_seen": "2026-05-31",
    "aliases": []
  },
  {
    "name": "Damen Ave & St Paul Ave",
    "lat": 41.913011,
    "lng": -87.677779,
    "first_seen": "2025-09-24",
    "last_seen": "2026-05-31",
    "aliases": []
  },
  {
    "name": "Damen Ave & Sunnyside Ave",
    "lat": 41.963252,
    "lng": -87.679268,
    "first_seen": "2020-01-01",
    "last_seen": "2026-05-31",
    "aliases": []
  },
  {
    "name": "Damen Ave & Thomas St (Augusta Blvd)",
    "lat": 41.901323,
    "lng": -87.677418,
    "first_seen": "2020-01-01",
    "last_seen": "2026-05-31",
    "aliases": []
  },
  {
    "name": "Damen Ave & Wabansia Ave",
    "lat": 41.911609,
    "lng": -87.67809,
    "first_seen": "2021-03-25",
    "last_seen": "2026-05-31",
    "aliases": []
  },
  {
    "name": "Damen Ave & Walnut (Lake) St",
    "lat": 41.885961,
    "lng": -87.677012,
    "first_seen": "2020-01-01",
    "last_seen": "2024-08-05",
    "aliases": [
      "Damen Ave & Walnut (Lake) St (*)"
    ]
  },
  {
    "name": "Damen Ave & Wellington Ave",
    "lat": 41.93588,
    "lng": -87.678419,
    "first_seen": "2020-01-02",
    "last_seen": "2026-05-31",
    "aliases": []
  },
  {
    "name": "Damen Ave & Wicker Park Ave",
    "lat": 41.908814,
    "lng": -87.677192,
    "first_seen": "2025-06-25",
    "last_seen": "2026-05-31",
    "aliases": []
  },
  {
    "name": "Dan Ryan Woods & 83rd St",
    "lat": 41.742805,
    "lng": -87.680177,
    "first_seen": "2024-01-07",
    "last_seen": "2026-05-31",
    "aliases": []
  },
  {
    "name": "Dauphin Ave & 103rd St",
    "lat": 41.707268,
    "lng": -87.607663,
    "first_seen": "2020-08-22",
    "last_seen": "2026-05-28",
    "aliases": []
  },
  {
    "name": "Dauphin Ave & 87th St",
    "lat": 41.736543,
    "lng": -87.601266,
    "first_seen": "2020-09-08",
    "last_seen": "2026-05-30",
    "aliases": []
  },
  {
    "name": "Dayton St & North Ave",
    "lat": 41.910584,
    "lng": -87.649424,
    "first_seen": "2020-01-01",
    "last_seen": "2026-05-31",
    "aliases": []
  },
  {
    "name": "Dearborn Pkwy & Delaware Pl",
    "lat": 41.89896,
    "lng": -87.629915,
    "first_seen": "2020-01-01",
    "last_seen": "2026-05-31",
    "aliases": []
  },
  {
    "name": "Dearborn St & Adams St 1",
    "lat": 41.879356,
    "lng": -87.629791,
    "first_seen": "2020-01-01",
    "last_seen": "2026-05-31",
    "aliases": [
      "Dearborn St & Adams St"
    ]
  },
  {
    "name": "Dearborn St & Adams St 2",
    "lat": 41.879629,
    "lng": -87.62937,
    "first_seen": "2026-02-09",
    "last_seen": "2026-05-31",
    "aliases": []
  },
  {
    "name": "Dearborn St & Adams St Corral",
    "lat": 41.879392,
    "lng": -87.629875,
    "first_seen": "2025-04-30",
    "last_seen": "2026-01-14",
    "aliases": []
  },
  {
    "name": "Dearborn St & Division St",
    "lat": 41.9043,
    "lng": -87.629911,
    "first_seen": "2025-09-16",
    "last_seen": "2026-05-31",
    "aliases": []
  },
  {
    "name": "Dearborn St & Erie St",
    "lat": 41.893999,
    "lng": -87.629369,
    "first_seen": "2020-01-01",
    "last_seen": "2026-05-31",
    "aliases": []
  },
  {
    "name": "Dearborn St & Madison St",
    "lat": 41.882058,
    "lng": -87.62964,
    "first_seen": "2025-11-21",
    "last_seen": "2026-05-31",
    "aliases": []
  },
  {
    "name": "Dearborn St & Maple St",
    "lat": 41.901915,
    "lng": -87.63026,
    "first_seen": "2025-09-15",
    "last_seen": "2026-05-31",
    "aliases": []
  },
  {
    "name": "Dearborn St & Monroe St",
    "lat": 41.881257,
    "lng": -87.629563,
    "first_seen": "2020-01-01",
    "last_seen": "2025-11-21",
    "aliases": []
  },
  {
    "name": "Dearborn St & Van Buren St",
    "lat": 41.876273,
    "lng": -87.629194,
    "first_seen": "2020-01-01",
    "last_seen": "2026-05-31",
    "aliases": []
  },
  {
    "name": "Dearborn St & Washington St",
    "lat": 41.882988,
    "lng": -87.629306,
    "first_seen": "2025-11-25",
    "last_seen": "2026-05-31",
    "aliases": []
  },
  {
    "name": "Delano Ct & Roosevelt Rd",
    "lat": 41.867491,
    "lng": -87.632191,
    "first_seen": "2020-01-01",
    "last_seen": "2026-05-31",
    "aliases": []
  },
  {
    "name": "Desplaines St & Jackson Blvd",
    "lat": 41.878086,
    "lng": -87.643974,
    "first_seen": "2020-01-01",
    "last_seen": "2026-05-31",
    "aliases": []
  },
  {
    "name": "Desplaines St & Kinzie St",
    "lat": 41.888696,
    "lng": -87.644441,
    "first_seen": "2020-01-01",
    "last_seen": "2026-05-31",
    "aliases": []
  },
  {
    "name": "Desplaines St & Randolph St",
    "lat": 41.884288,
    "lng": -87.64444,
    "first_seen": "2020-01-01",
    "last_seen": "2026-05-31",
    "aliases": []
  },
  {
    "name": "Divvy Valet - Oakwood Beach",
    "lat": 41.82444,
    "lng": -87.598143,
    "first_seen": "2022-07-14",
    "last_seen": "2022-07-17",
    "aliases": []
  },
  {
    "name": "Dodge Ave & Church St",
    "lat": 42.048265,
    "lng": -87.698258,
    "first_seen": "2020-01-01",
    "last_seen": "2026-05-31",
    "aliases": []
  },
  {
    "name": "Dodge Ave & Main St",
    "lat": 42.034652,
    "lng": -87.699193,
    "first_seen": "2020-11-29",
    "last_seen": "2026-05-30",
    "aliases": []
  },
  {
    "name": "Dodge Ave & Mulford St",
    "lat": 42.023487,
    "lng": -87.699599,
    "first_seen": "2020-01-02",
    "last_seen": "2026-05-31",
    "aliases": []
  },
  {
    "name": "Dorchester Ave & 49th St",
    "lat": 41.805788,
    "lng": -87.592472,
    "first_seen": "2020-01-01",
    "last_seen": "2026-05-31",
    "aliases": []
  },
  {
    "name": "Dorchester Ave & 53rd St",
    "lat": 41.79943,
    "lng": -87.592269,
    "first_seen": "2025-11-14",
    "last_seen": "2026-05-31",
    "aliases": []
  },
  {
    "name": "Dorchester Ave & 63rd St",
    "lat": 41.78043,
    "lng": -87.591422,
    "first_seen": "2020-01-04",
    "last_seen": "2026-05-31",
    "aliases": []
  },
  {
    "name": "Doty Ave & 111th St",
    "lat": 41.695022,
    "lng": -87.598732,
    "first_seen": "2021-09-16",
    "last_seen": "2026-05-27",
    "aliases": []
  },
  {
    "name": "Drake Ave & Addison St",
    "lat": 41.947324,
    "lng": -87.717579,
    "first_seen": "2020-01-01",
    "last_seen": "2026-05-31",
    "aliases": []
  },
  {
    "name": "Drake Ave & Armitage Ave",
    "lat": 41.917492,
    "lng": -87.715239,
    "first_seen": "2026-01-13",
    "last_seen": "2026-05-31",
    "aliases": []
  },
  {
    "name": "Drake Ave & Fullerton Ave",
    "lat": 41.924395,
    "lng": -87.715426,
    "first_seen": "2020-01-01",
    "last_seen": "2020-10-01",
    "aliases": []
  },
  {
    "name": "Drake Ave & Montrose Ave",
    "lat": 41.961148,
    "lng": -87.716561,
    "first_seen": "2020-01-01",
    "last_seen": "2026-05-31",
    "aliases": []
  },
  {
    "name": "Drexel Ave & 60th St",
    "lat": 41.785857,
    "lng": -87.604557,
    "first_seen": "2023-08-02",
    "last_seen": "2026-05-31",
    "aliases": []
  },
  {
    "name": "DuSable Lake Shore Dr & Belmont Ave",
    "lat": 41.940766,
    "lng": -87.63919,
    "first_seen": "2020-01-01",
    "last_seen": "2026-05-31",
    "aliases": [
      "Lake Shore Dr & Belmont Ave"
    ]
  },
  {
    "name": "DuSable Lake Shore Dr & Diversey Pkwy",
    "lat": 41.932581,
    "lng": -87.636428,
    "first_seen": "2020-01-01",
    "last_seen": "2026-05-31",
    "aliases": [
      "Lake Shore Dr & Diversey Pkwy"
    ]
  },
  {
    "name": "DuSable Lake Shore Dr & Monroe St",
    "lat": 41.880968,
    "lng": -87.61675,
    "first_seen": "2020-01-01",
    "last_seen": "2026-05-31",
    "aliases": [
      "Lake Shore Dr & Monroe St"
    ]
  },
  {
    "name": "DuSable Lake Shore Dr & North Blvd",
    "lat": 41.911719,
    "lng": -87.626811,
    "first_seen": "2020-01-01",
    "last_seen": "2026-05-31",
    "aliases": [
      "Lake Shore Dr & North Blvd"
    ]
  },
  {
    "name": "DuSable Lake Shore Dr & Ohio St",
    "lat": 41.892561,
    "lng": -87.614522,
    "first_seen": "2020-01-01",
    "last_seen": "2021-12-16",
    "aliases": [
      "Lake Shore Dr & Ohio St"
    ]
  },
  {
    "name": "DuSable Lake Shore Dr & Wellington Ave",
    "lat": 41.93669,
    "lng": -87.636832,
    "first_seen": "2020-01-01",
    "last_seen": "2026-05-31",
    "aliases": [
      "Lake Shore Dr & Wellington Ave"
    ]
  },
  {
    "name": "DuSable Museum",
    "lat": 41.791575,
    "lng": -87.607859,
    "first_seen": "2020-01-02",
    "last_seen": "2026-05-31",
    "aliases": []
  },
  {
    "name": "Dusable Harbor",
    "lat": 41.886972,
    "lng": -87.612818,
    "first_seen": "2020-01-01",
    "last_seen": "2026-05-31",
    "aliases": []
  },
  {
    "name": "East End Ave & 75th St",
    "lat": 41.76,
    "lng": -87.58,
    "first_seen": "2022-07-30",
    "last_seen": "2022-08-06",
    "aliases": [
      "South Shore High School"
    ]
  },
  {
    "name": "East End Ave & 87th St",
    "lat": 41.736949,
    "lng": -87.582926,
    "first_seen": "2020-08-01",
    "last_seen": "2026-05-30",
    "aliases": []
  },
  {
    "name": "Eastlake Ter & Howard St",
    "lat": 42.019201,
    "lng": -87.664306,
    "first_seen": "2022-09-29",
    "last_seen": "2026-05-31",
    "aliases": []
  },
  {
    "name": "Eastlake Ter & Rogers Ave",
    "lat": 42.020862,
    "lng": -87.665056,
    "first_seen": "2020-01-01",
    "last_seen": "2022-09-29",
    "aliases": []
  },
  {
    "name": "Eberhart Ave & 131st St",
    "lat": 41.658555,
    "lng": -87.610901,
    "first_seen": "2020-09-24",
    "last_seen": "2026-05-29",
    "aliases": []
  },
  {
    "name": "Eberhart Ave & 61st St",
    "lat": 41.78413,
    "lng": -87.613954,
    "first_seen": "2020-01-09",
    "last_seen": "2026-05-31",
    "aliases": []
  },
  {
    "name": "Eberhart Ave & 91st St",
    "lat": 41.729448,
    "lng": -87.611258,
    "first_seen": "2020-07-31",
    "last_seen": "2026-05-27",
    "aliases": []
  },
  {
    "name": "Eckhart Park",
    "lat": 41.896379,
    "lng": -87.660988,
    "first_seen": "2020-01-01",
    "last_seen": "2026-05-31",
    "aliases": []
  },
  {
    "name": "Eddy/Seminary Corral",
    "lat": 41.94613,
    "lng": -87.65667,
    "first_seen": "2025-07-02",
    "last_seen": "2026-05-30",
    "aliases": []
  },
  {
    "name": "Edgebrook Metra",
    "lat": 41.99751,
    "lng": -87.76539,
    "first_seen": "2025-03-08",
    "last_seen": "2026-05-31",
    "aliases": []
  },
  {
    "name": "Eggleston Ave & 111th St",
    "lat": 41.69254,
    "lng": -87.63374,
    "first_seen": "2025-04-18",
    "last_seen": "2026-05-30",
    "aliases": []
  },
  {
    "name": "Eggleston Ave & 114th St",
    "lat": 41.69,
    "lng": -87.63,
    "first_seen": "2022-07-23",
    "last_seen": "2022-07-26",
    "aliases": []
  },
  {
    "name": "Eggleston Ave & 115th St",
    "lat": 41.685067,
    "lng": -87.633446,
    "first_seen": "2022-08-07",
    "last_seen": "2026-05-29",
    "aliases": []
  },
  {
    "name": "Eggleston Ave & 69th St",
    "lat": 41.768936,
    "lng": -87.6359,
    "first_seen": "2020-01-27",
    "last_seen": "2026-05-29",
    "aliases": [
      "Eggleston Ave & 69th St (*)"
    ]
  },
  {
    "name": "Eggleston Ave & 92nd St",
    "lat": 41.727872,
    "lng": -87.634999,
    "first_seen": "2020-09-03",
    "last_seen": "2026-05-26",
    "aliases": []
  },
  {
    "name": "Elizabeth (May) St & Fulton St",
    "lat": 41.886605,
    "lng": -87.658131,
    "first_seen": "2020-01-02",
    "last_seen": "2022-09-26",
    "aliases": []
  },
  {
    "name": "Elizabeth St & 47th St",
    "lat": 41.808395,
    "lng": -87.656528,
    "first_seen": "2020-01-01",
    "last_seen": "2026-05-30",
    "aliases": []
  },
  {
    "name": "Elizabeth St & 59th St",
    "lat": 41.789281,
    "lng": -87.654942,
    "first_seen": "2020-01-03",
    "last_seen": "2023-10-21",
    "aliases": []
  },
  {
    "name": "Elizabeth St & 92nd St",
    "lat": 41.726854,
    "lng": -87.654316,
    "first_seen": "2020-08-14",
    "last_seen": "2026-05-31",
    "aliases": []
  },
  {
    "name": "Elizabeth St & Fulton St",
    "lat": 41.886754,
    "lng": -87.659367,
    "first_seen": "2022-09-24",
    "last_seen": "2026-05-31",
    "aliases": []
  },
  {
    "name": "Elizabeth St & Randolph St",
    "lat": 41.884165,
    "lng": -87.658952,
    "first_seen": "2023-02-07",
    "last_seen": "2026-05-31",
    "aliases": []
  },
  {
    "name": "Ellis Ave & 132nd Pl",
    "lat": 41.66,
    "lng": -87.6,
    "first_seen": "2022-07-31",
    "last_seen": "2022-08-21",
    "aliases": []
  },
  {
    "name": "Ellis Ave & 53rd St",
    "lat": 41.799345,
    "lng": -87.600967,
    "first_seen": "2020-01-01",
    "last_seen": "2026-05-31",
    "aliases": []
  },
  {
    "name": "Ellis Ave & 55th St",
    "lat": 41.794301,
    "lng": -87.601449,
    "first_seen": "2020-01-01",
    "last_seen": "2026-05-31",
    "aliases": []
  },
  {
    "name": "Ellis Ave & 58th St",
    "lat": 41.788746,
    "lng": -87.601327,
    "first_seen": "2020-01-01",
    "last_seen": "2026-05-31",
    "aliases": []
  },
  {
    "name": "Ellis Ave & 60th St",
    "lat": 41.785104,
    "lng": -87.601076,
    "first_seen": "2020-01-02",
    "last_seen": "2026-05-31",
    "aliases": []
  },
  {
    "name": "Ellis Ave & 83rd St",
    "lat": 41.744123,
    "lng": -87.599047,
    "first_seen": "2020-01-28",
    "last_seen": "2026-05-31",
    "aliases": []
  },
  {
    "name": "Elmwood Ave & Austin St",
    "lat": 42.025778,
    "lng": -87.684114,
    "first_seen": "2020-01-01",
    "last_seen": "2026-05-31",
    "aliases": []
  },
  {
    "name": "Elston Ave & Carmen Ave",
    "lat": 41.97354,
    "lng": -87.749551,
    "first_seen": "2025-02-05",
    "last_seen": "2026-05-30",
    "aliases": []
  },
  {
    "name": "Elston Ave & Cortland St",
    "lat": 41.916436,
    "lng": -87.666749,
    "first_seen": "2021-05-23",
    "last_seen": "2026-05-31",
    "aliases": []
  },
  {
    "name": "Elston Ave & George St",
    "lat": 41.932882,
    "lng": -87.690597,
    "first_seen": "2021-11-05",
    "last_seen": "2026-05-31",
    "aliases": []
  },
  {
    "name": "Elston Ave & Henderson St",
    "lat": 41.941088,
    "lng": -87.70071,
    "first_seen": "2021-11-19",
    "last_seen": "2026-05-31",
    "aliases": []
  },
  {
    "name": "Elston Ave & Wabansia Ave",
    "lat": 41.91292,
    "lng": -87.66417,
    "first_seen": "2020-01-01",
    "last_seen": "2026-05-31",
    "aliases": []
  },
  {
    "name": "Emerald Ave & 28th St",
    "lat": 41.84358,
    "lng": -87.645375,
    "first_seen": "2020-01-01",
    "last_seen": "2026-05-31",
    "aliases": []
  },
  {
    "name": "Emerald Ave & 31st St",
    "lat": 41.838204,
    "lng": -87.645138,
    "first_seen": "2020-01-01",
    "last_seen": "2026-05-31",
    "aliases": []
  },
  {
    "name": "Emerald Ave & 43rd St",
    "lat": 41.82,
    "lng": -87.640952,
    "first_seen": "2022-06-10",
    "last_seen": "2022-08-15",
    "aliases": []
  },
  {
    "name": "Emerald Ave & 45th St",
    "lat": 41.81,
    "lng": -87.64125,
    "first_seen": "2022-06-21",
    "last_seen": "2022-08-15",
    "aliases": []
  },
  {
    "name": "Evans Ave & 63rd St",
    "lat": 41.78,
    "lng": -87.61,
    "first_seen": "2022-05-13",
    "last_seen": "2022-09-05",
    "aliases": []
  },
  {
    "name": "Evans Ave & 75th St",
    "lat": 41.758531,
    "lng": -87.606409,
    "first_seen": "2020-01-01",
    "last_seen": "2026-05-30",
    "aliases": []
  },
  {
    "name": "Evanston Civic Center",
    "lat": 42.05704,
    "lng": -87.68656,
    "first_seen": "2020-01-02",
    "last_seen": "2026-05-31",
    "aliases": []
  },
  {
    "name": "Ewing Ave & 101st St",
    "lat": 41.71,
    "lng": -87.54,
    "first_seen": "2022-06-13",
    "last_seen": "2022-08-28",
    "aliases": [
      "Ewing Ave & Indianapolis Ave"
    ]
  },
  {
    "name": "Ewing Ave & 105th St",
    "lat": 41.7,
    "lng": -87.539167,
    "first_seen": "2022-05-26",
    "last_seen": "2022-09-06",
    "aliases": []
  },
  {
    "name": "Ewing Ave & 106th St",
    "lat": 41.702575,
    "lng": -87.535759,
    "first_seen": "2022-05-09",
    "last_seen": "2026-05-23",
    "aliases": []
  },
  {
    "name": "Ewing Ave & 112th St",
    "lat": 41.69,
    "lng": -87.534286,
    "first_seen": "2022-06-18",
    "last_seen": "2022-07-22",
    "aliases": []
  },
  {
    "name": "Ewing Ave & 96th St",
    "lat": 41.72,
    "lng": -87.54,
    "first_seen": "2022-05-10",
    "last_seen": "2022-09-06",
    "aliases": [
      "Ewing Ave & 99th St"
    ]
  },
  {
    "name": "Ewing Ave & 97th St",
    "lat": 41.71982,
    "lng": -87.53542,
    "first_seen": "2024-09-04",
    "last_seen": "2026-05-30",
    "aliases": []
  },
  {
    "name": "Ewing Ave & 98th St",
    "lat": 41.71781,
    "lng": -87.53504,
    "first_seen": "2024-08-29",
    "last_seen": "2026-05-31",
    "aliases": []
  },
  {
    "name": "Ewing Ave & Burnham Greenway",
    "lat": 41.773741,
    "lng": -87.581215,
    "first_seen": "2020-09-24",
    "last_seen": "2026-05-28",
    "aliases": []
  },
  {
    "name": "Exchange Ave & 79th St",
    "lat": 41.751914,
    "lng": -87.552502,
    "first_seen": "2020-01-10",
    "last_seen": "2026-05-31",
    "aliases": []
  },
  {
    "name": "Fairbanks Ct & Grand Ave",
    "lat": 41.891857,
    "lng": -87.620595,
    "first_seen": "2020-01-01",
    "last_seen": "2026-05-31",
    "aliases": []
  },
  {
    "name": "Fairbanks St & Superior St",
    "lat": 41.895749,
    "lng": -87.620128,
    "first_seen": "2020-01-01",
    "last_seen": "2026-05-31",
    "aliases": []
  },
  {
    "name": "Fairfield Ave & 44th St",
    "lat": 41.812707,
    "lng": -87.692416,
    "first_seen": "2021-10-18",
    "last_seen": "2026-05-31",
    "aliases": []
  },
  {
    "name": "Fairfield Ave & Pratt Blvd",
    "lat": 42.004472,
    "lng": -87.698599,
    "first_seen": "2024-03-28",
    "last_seen": "2026-05-31",
    "aliases": []
  },
  {
    "name": "Fairfield Ave & Roosevelt Rd",
    "lat": 41.86664,
    "lng": -87.694502,
    "first_seen": "2020-01-06",
    "last_seen": "2026-05-31",
    "aliases": []
  },
  {
    "name": "Farragut Ave & Central Ave",
    "lat": 41.97666,
    "lng": -87.76823,
    "first_seen": "2024-12-02",
    "last_seen": "2026-05-31",
    "aliases": []
  },
  {
    "name": "Federal St & Polk St",
    "lat": 41.87209,
    "lng": -87.629551,
    "first_seen": "2020-01-01",
    "last_seen": "2026-05-31",
    "aliases": []
  },
  {
    "name": "Field Blvd & South Water St",
    "lat": 41.886317,
    "lng": -87.617502,
    "first_seen": "2020-01-01",
    "last_seen": "2026-05-31",
    "aliases": []
  },
  {
    "name": "Field Museum",
    "lat": 41.865315,
    "lng": -87.617892,
    "first_seen": "2020-01-01",
    "last_seen": "2026-05-31",
    "aliases": []
  },
  {
    "name": "Financial Pl & Ida B Wells Dr",
    "lat": 41.875024,
    "lng": -87.633098,
    "first_seen": "2020-01-01",
    "last_seen": "2026-05-31",
    "aliases": []
  },
  {
    "name": "Forrestville Ave & 47th St",
    "lat": 41.81,
    "lng": -87.61,
    "first_seen": "2022-05-09",
    "last_seen": "2022-09-06",
    "aliases": []
  },
  {
    "name": "Fort Dearborn Dr & 31st St",
    "lat": 41.838553,
    "lng": -87.608217,
    "first_seen": "2020-01-01",
    "last_seen": "2026-05-31",
    "aliases": []
  },
  {
    "name": "Fort Dearborn Dr & 31st St*",
    "lat": 41.838662,
    "lng": -87.608808,
    "first_seen": "2023-06-03",
    "last_seen": "2026-05-31",
    "aliases": []
  },
  {
    "name": "Francisco Ave & 47th St",
    "lat": 41.809029,
    "lng": -87.697905,
    "first_seen": "2021-11-27",
    "last_seen": "2026-05-30",
    "aliases": []
  },
  {
    "name": "Francisco Ave & 85th St",
    "lat": 41.738901,
    "lng": -87.695521,
    "first_seen": "2024-02-03",
    "last_seen": "2026-05-31",
    "aliases": []
  },
  {
    "name": "Francisco Ave & Bloomingdale Ave",
    "lat": 41.913033,
    "lng": -87.699534,
    "first_seen": "2021-11-11",
    "last_seen": "2026-05-31",
    "aliases": []
  },
  {
    "name": "Francisco Ave & Chicago Ave",
    "lat": 41.895764,
    "lng": -87.698653,
    "first_seen": "2023-04-27",
    "last_seen": "2026-05-31",
    "aliases": []
  },
  {
    "name": "Francisco Ave & Foster Ave",
    "lat": 41.975634,
    "lng": -87.701418,
    "first_seen": "2020-01-02",
    "last_seen": "2026-05-31",
    "aliases": []
  },
  {
    "name": "Francisco Ave & Hollywood Ave",
    "lat": 41.983146,
    "lng": -87.70108,
    "first_seen": "2021-11-05",
    "last_seen": "2026-05-29",
    "aliases": []
  },
  {
    "name": "Francisco Ave & Montrose Ave",
    "lat": 41.960691,
    "lng": -87.7006,
    "first_seen": "2021-11-02",
    "last_seen": "2026-05-31",
    "aliases": []
  },
  {
    "name": "Franciso Ave & Bloomingdale Ave",
    "lat": 41.913964,
    "lng": -87.699406,
    "first_seen": "2025-08-01",
    "last_seen": "2025-08-05",
    "aliases": []
  },
  {
    "name": "Franklin St & Adams St",
    "lat": 41.879431,
    "lng": -87.635504,
    "first_seen": "2025-04-11",
    "last_seen": "2026-05-31",
    "aliases": []
  },
  {
    "name": "Franklin St & Adams St (Temp)",
    "lat": 41.879379,
    "lng": -87.635491,
    "first_seen": "2020-01-01",
    "last_seen": "2025-04-11",
    "aliases": []
  },
  {
    "name": "Franklin St & Adams St Corral",
    "lat": 41.879415,
    "lng": -87.635578,
    "first_seen": "2025-04-28",
    "last_seen": "2026-01-22",
    "aliases": []
  },
  {
    "name": "Franklin St & Chicago Ave",
    "lat": 41.896762,
    "lng": -87.635683,
    "first_seen": "2020-01-01",
    "last_seen": "2026-05-31",
    "aliases": [
      "Franklin St & Chicago Ave*"
    ]
  },
  {
    "name": "Franklin St & Illinois St",
    "lat": 41.891023,
    "lng": -87.635476,
    "first_seen": "2020-01-01",
    "last_seen": "2026-05-31",
    "aliases": []
  },
  {
    "name": "Franklin St & Jackson Blvd",
    "lat": 41.877723,
    "lng": -87.635313,
    "first_seen": "2020-01-01",
    "last_seen": "2026-05-31",
    "aliases": []
  },
  {
    "name": "Franklin St & Lake St",
    "lat": 41.885831,
    "lng": -87.635502,
    "first_seen": "2020-01-01",
    "last_seen": "2026-05-31",
    "aliases": []
  },
  {
    "name": "Franklin St & Madison St",
    "lat": 41.881388,
    "lng": -87.635417,
    "first_seen": "2025-10-01",
    "last_seen": "2026-05-31",
    "aliases": []
  },
  {
    "name": "Franklin St & Monroe St",
    "lat": 41.880284,
    "lng": -87.635243,
    "first_seen": "2020-01-01",
    "last_seen": "2026-05-31",
    "aliases": []
  },
  {
    "name": "Franklin St & Monroe St Corral",
    "lat": 41.880558,
    "lng": -87.63524,
    "first_seen": "2025-04-28",
    "last_seen": "2025-08-21",
    "aliases": []
  },
  {
    "name": "Franklin St & Randolph St",
    "lat": 41.88439,
    "lng": -87.63517,
    "first_seen": "2026-05-15",
    "last_seen": "2026-05-31",
    "aliases": []
  },
  {
    "name": "Franklin St & Washington St",
    "lat": 41.88318,
    "lng": -87.63511,
    "first_seen": "2025-07-09",
    "last_seen": "2026-05-31",
    "aliases": []
  },
  {
    "name": "Front Ave & 115th St",
    "lat": 41.685771,
    "lng": -87.612481,
    "first_seen": "2026-02-10",
    "last_seen": "2026-05-30",
    "aliases": []
  },
  {
    "name": "Fullerton & Monitor",
    "lat": 41.921194,
    "lng": -87.770725,
    "first_seen": "2022-01-10",
    "last_seen": "2026-03-03",
    "aliases": []
  },
  {
    "name": "Fulton Market",
    "lat": 41.88687,
    "lng": -87.648089,
    "first_seen": "2025-09-10",
    "last_seen": "2026-05-31",
    "aliases": []
  },
  {
    "name": "Glenlake Ave & Pulaski Rd",
    "lat": 41.992295,
    "lng": -87.728875,
    "first_seen": "2024-04-08",
    "last_seen": "2024-05-13",
    "aliases": []
  },
  {
    "name": "Glenwood Ave & Morse Ave",
    "lat": 42.007965,
    "lng": -87.665493,
    "first_seen": "2020-01-01",
    "last_seen": "2026-05-31",
    "aliases": []
  },
  {
    "name": "Glenwood Ave & Touhy Ave",
    "lat": 42.012707,
    "lng": -87.666058,
    "first_seen": "2020-01-01",
    "last_seen": "2026-05-31",
    "aliases": []
  },
  {
    "name": "Grace St & Central Ave",
    "lat": 41.949535,
    "lng": -87.767264,
    "first_seen": "2024-04-18",
    "last_seen": "2026-05-31",
    "aliases": []
  },
  {
    "name": "Grace St & Cicero Ave",
    "lat": 41.949732,
    "lng": -87.746948,
    "first_seen": "2024-04-16",
    "last_seen": "2026-05-31",
    "aliases": [
      "Grace & Cicero"
    ]
  },
  {
    "name": "Grace/Sheffield Corral",
    "lat": 41.951159,
    "lng": -87.654611,
    "first_seen": "2025-05-16",
    "last_seen": "2026-05-31",
    "aliases": [
      "Grace/Sheffield"
    ]
  },
  {
    "name": "Grand Ave & North Ave",
    "lat": 41.91,
    "lng": -87.7324,
    "first_seen": "2022-05-17",
    "last_seen": "2022-06-08",
    "aliases": []
  },
  {
    "name": "Granville Ave & Clark St",
    "lat": 41.9944,
    "lng": -87.669829,
    "first_seen": "2025-10-21",
    "last_seen": "2026-05-31",
    "aliases": []
  },
  {
    "name": "Granville Ave & Pulaski Rd",
    "lat": 41.992446,
    "lng": -87.72891,
    "first_seen": "2024-05-14",
    "last_seen": "2026-05-30",
    "aliases": []
  },
  {
    "name": "Green St & 103rd St",
    "lat": 41.71,
    "lng": -87.64,
    "first_seen": "2022-05-22",
    "last_seen": "2022-08-21",
    "aliases": [
      "Halsted St & 102nd St",
      "Parnell Ave & 103rd St"
    ]
  },
  {
    "name": "Green St & 86th St",
    "lat": 41.737847,
    "lng": -87.644902,
    "first_seen": "2025-11-21",
    "last_seen": "2026-05-26",
    "aliases": []
  },
  {
    "name": "Green St & Chicago Ave",
    "lat": 41.89401,
    "lng": -87.650358,
    "first_seen": "2025-08-13",
    "last_seen": "2026-05-31",
    "aliases": []
  },
  {
    "name": "Green St & Lake St",
    "lat": 41.885581,
    "lng": -87.64841,
    "first_seen": "2025-07-23",
    "last_seen": "2026-05-31",
    "aliases": []
  },
  {
    "name": "Green St & Madison Ave*",
    "lat": 41.881836,
    "lng": -87.648839,
    "first_seen": "2022-11-10",
    "last_seen": "2022-12-21",
    "aliases": []
  },
  {
    "name": "Green St & Madison St",
    "lat": 41.881877,
    "lng": -87.649015,
    "first_seen": "2020-01-01",
    "last_seen": "2026-05-31",
    "aliases": []
  },
  {
    "name": "Green St & Randolph St",
    "lat": 41.883608,
    "lng": -87.648654,
    "first_seen": "2020-01-01",
    "last_seen": "2026-05-31",
    "aliases": [
      "Green St & Randolph St*"
    ]
  },
  {
    "name": "Green St & Washington Blvd",
    "lat": 41.883183,
    "lng": -87.648734,
    "first_seen": "2022-07-27",
    "last_seen": "2026-05-31",
    "aliases": []
  },
  {
    "name": "Greenview Ave & Diversey Pkwy",
    "lat": 41.932597,
    "lng": -87.665931,
    "first_seen": "2020-01-01",
    "last_seen": "2026-03-06",
    "aliases": []
  },
  {
    "name": "Greenview Ave & Fullerton Ave",
    "lat": 41.925344,
    "lng": -87.665803,
    "first_seen": "2020-01-01",
    "last_seen": "2026-05-30",
    "aliases": []
  },
  {
    "name": "Greenview Ave & Jarvis Ave",
    "lat": 42.015965,
    "lng": -87.668581,
    "first_seen": "2020-01-01",
    "last_seen": "2026-05-31",
    "aliases": []
  },
  {
    "name": "Greenwood Ave & 47th St",
    "lat": 41.809837,
    "lng": -87.59938,
    "first_seen": "2020-01-02",
    "last_seen": "2026-05-31",
    "aliases": []
  },
  {
    "name": "Greenwood Ave & 79th St",
    "lat": 41.751328,
    "lng": -87.597239,
    "first_seen": "2020-01-02",
    "last_seen": "2026-05-30",
    "aliases": []
  },
  {
    "name": "Greenwood Ave & 91st St",
    "lat": 41.728361,
    "lng": -87.597333,
    "first_seen": "2020-09-01",
    "last_seen": "2026-05-30",
    "aliases": []
  },
  {
    "name": "Greenwood Ave & 97th St",
    "lat": 41.718808,
    "lng": -87.597074,
    "first_seen": "2020-09-03",
    "last_seen": "2026-05-31",
    "aliases": []
  },
  {
    "name": "Greenwood Ave & Lake Park Ave",
    "lat": 41.82,
    "lng": -87.6,
    "first_seen": "2022-06-03",
    "last_seen": "2022-08-31",
    "aliases": []
  },
  {
    "name": "Griffin Museum of Science and Industry",
    "lat": 41.791729,
    "lng": -87.583946,
    "first_seen": "2020-01-01",
    "last_seen": "2026-05-31",
    "aliases": [
      "Museum of Science and Industry"
    ]
  },
  {
    "name": "HQ QR",
    "lat": 41.8899,
    "lng": -87.6803,
    "first_seen": "2020-02-25",
    "last_seen": "2020-03-27",
    "aliases": []
  },
  {
    "name": "HUBBARD ST BIKE CHECKING (LBS-WH-TEST)",
    "lat": 41.889967,
    "lng": -87.680584,
    "first_seen": "2020-01-02",
    "last_seen": "2020-12-07",
    "aliases": []
  },
  {
    "name": "Hale Ave & 107th St",
    "lat": 41.699217,
    "lng": -87.668922,
    "first_seen": "2020-10-02",
    "last_seen": "2026-05-31",
    "aliases": []
  },
  {
    "name": "Halsted & 63rd - Kennedy-King Vaccination Site",
    "lat": 41.779488,
    "lng": -87.644663,
    "first_seen": "2021-03-06",
    "last_seen": "2022-10-03",
    "aliases": []
  },
  {
    "name": "Halsted St & 104th St",
    "lat": 41.705153,
    "lng": -87.642422,
    "first_seen": "2020-09-15",
    "last_seen": "2026-05-28",
    "aliases": []
  },
  {
    "name": "Halsted St & 111th St",
    "lat": 41.692414,
    "lng": -87.642609,
    "first_seen": "2020-09-19",
    "last_seen": "2026-05-30",
    "aliases": []
  },
  {
    "name": "Halsted St & 119th St",
    "lat": 41.67764,
    "lng": -87.64174,
    "first_seen": "2025-02-22",
    "last_seen": "2026-05-30",
    "aliases": []
  },
  {
    "name": "Halsted St & 123rd St",
    "lat": 41.670959,
    "lng": -87.64154,
    "first_seen": "2024-11-12",
    "last_seen": "2026-05-27",
    "aliases": []
  },
  {
    "name": "Halsted St & 18th St",
    "lat": 41.857511,
    "lng": -87.64605,
    "first_seen": "2020-01-01",
    "last_seen": "2026-05-31",
    "aliases": []
  },
  {
    "name": "Halsted St & 18th St (Temp)",
    "lat": 41.858386,
    "lng": -87.646375,
    "first_seen": "2021-07-24",
    "last_seen": "2021-12-15",
    "aliases": []
  },
  {
    "name": "Halsted St & 21st St",
    "lat": 41.853788,
    "lng": -87.646598,
    "first_seen": "2020-01-02",
    "last_seen": "2026-05-31",
    "aliases": []
  },
  {
    "name": "Halsted St & 35th St",
    "lat": 41.830664,
    "lng": -87.647152,
    "first_seen": "2020-01-01",
    "last_seen": "2026-05-31",
    "aliases": []
  },
  {
    "name": "Halsted St & 37th St",
    "lat": 41.827075,
    "lng": -87.645718,
    "first_seen": "2020-01-01",
    "last_seen": "2026-05-31",
    "aliases": []
  },
  {
    "name": "Halsted St & 41st St",
    "lat": 41.82,
    "lng": -87.65,
    "first_seen": "2022-07-07",
    "last_seen": "2022-08-01",
    "aliases": []
  },
  {
    "name": "Halsted St & 47th Pl",
    "lat": 41.808204,
    "lng": -87.645682,
    "first_seen": "2020-01-02",
    "last_seen": "2026-05-29",
    "aliases": []
  },
  {
    "name": "Halsted St & 51st St",
    "lat": 41.801838,
    "lng": -87.645251,
    "first_seen": "2020-02-02",
    "last_seen": "2026-05-30",
    "aliases": []
  },
  {
    "name": "Halsted St & 56th St",
    "lat": 41.793005,
    "lng": -87.644976,
    "first_seen": "2020-01-02",
    "last_seen": "2026-05-30",
    "aliases": []
  },
  {
    "name": "Halsted St & 59th St",
    "lat": 41.787544,
    "lng": -87.644876,
    "first_seen": "2020-03-08",
    "last_seen": "2026-05-31",
    "aliases": []
  },
  {
    "name": "Halsted St & 63rd St",
    "lat": 41.779394,
    "lng": -87.644558,
    "first_seen": "2020-01-03",
    "last_seen": "2026-05-31",
    "aliases": []
  },
  {
    "name": "Halsted St & 64th St",
    "lat": 41.78,
    "lng": -87.64,
    "first_seen": "2022-06-02",
    "last_seen": "2022-09-01",
    "aliases": [
      "Normal Blvd & 61st Pl"
    ]
  },
  {
    "name": "Halsted St & 69th St",
    "lat": 41.76906,
    "lng": -87.644612,
    "first_seen": "2020-01-27",
    "last_seen": "2026-05-30",
    "aliases": []
  },
  {
    "name": "Halsted St & 73rd St",
    "lat": 41.761788,
    "lng": -87.64419,
    "first_seen": "2020-07-02",
    "last_seen": "2026-05-30",
    "aliases": []
  },
  {
    "name": "Halsted St & 76th St",
    "lat": 41.76,
    "lng": -87.64,
    "first_seen": "2022-05-09",
    "last_seen": "2022-08-27",
    "aliases": [
      "Normal Ave & 72nd St"
    ]
  },
  {
    "name": "Halsted St & 78th St",
    "lat": 41.752549,
    "lng": -87.643804,
    "first_seen": "2020-07-23",
    "last_seen": "2026-05-28",
    "aliases": []
  },