[
  {
    "name": "10e Avenue / Masson",
    "lat": 45.550394,
    "lng": -73.573762,
    "first_seen": null,
    "last_seen": null,
    "aliases": []
  },
  {
    "name": "10e avenue / Holt",
    "lat": 45.551912,
    "lng": -73.579211,
    "first_seen": null,
    "last_seen": null,
    "aliases": []
  },
  {
    "name": "10e avenue / Masson",
    "lat": 45.550328,
    "lng": -73.573472,
    "first_seen": null,
    "last_seen": null,
    "aliases": []
  },
  {
    "name": "10e avenue / Shaughnessy",
    "lat": 45.558486,
    "lng": -73.599373,
    "first_seen": null,
    "last_seen": null,
    "aliases": []
  },
  {
    "name": "11e avenue / du Souvenir",
    "lat": 45.569339,
    "lng": -73.704727,
    "first_seen": null,
    "last_seen": null,
    "aliases": []
  },
  {
    "name": "12e avenue / St-Zotique",
    "lat": 45.556869,
    "lng": -73.589312,
    "first_seen": null,
    "last_seen": null,
    "aliases": []
  },
  {
    "name": "14e avenue / Jean-Talon",
    "lat": 45.561324,
    "lng": -73.596294,
    "first_seen": null,
    "last_seen": null,
    "aliases": []
  },
  {
    "name": "15e Rue / Robin",
    "lat": 45.559376,
    "lng": -73.698512,
    "first_seen": null,
    "last_seen": null,
    "aliases": []
  },
  {
    "name": "15e avenue / Dandurand",
    "lat": 45.554787,
    "lng": -73.574259,
    "first_seen": null,
    "last_seen": null,
    "aliases": []
  },
  {
    "name": "15e avenue / Laurier",
    "lat": 45.55332,
    "lng": -73.569328,
    "first_seen": null,
    "last_seen": null,
    "aliases": [
      "Parc André-Lavallée (Laurier)"
    ]
  },
  {
    "name": "15e avenue / Masson",
    "lat": 45.553898,
    "lng": -73.571387,
    "first_seen": null,
    "last_seen": null,
    "aliases": []
  },
  {
    "name": "16e avenue / Beaubien",
    "lat": 45.558281,
    "lng": -73.583159,
    "first_seen": null,
    "last_seen": null,
    "aliases": []
  },
  {
    "name": "16e avenue / Jean-Talon",
    "lat": 45.562428,
    "lng": -73.595335,
    "first_seen": null,
    "last_seen": null,
    "aliases": [
      "16e avenue / Jean-talon"
    ]
  },
  {
    "name": "16e avenue / St-Joseph",
    "lat": 45.552903,
    "lng": -73.565701,
    "first_seen": null,
    "last_seen": null,
    "aliases": []
  },
  {
    "name": "18e avenue / Rosemont",
    "lat": 45.557896,
    "lng": -73.576529,
    "first_seen": null,
    "last_seen": null,
    "aliases": []
  },
  {
    "name": "19e avenue / St-Antoine",
    "lat": 45.439779,
    "lng": -73.681371,
    "first_seen": null,
    "last_seen": null,
    "aliases": []
  },
  {
    "name": "19e avenue / St-Zotique",
    "lat": 45.561641,
    "lng": -73.585646,
    "first_seen": null,
    "last_seen": null,
    "aliases": []
  },
  {
    "name": "1ere avenue / St-Zotique",
    "lat": 45.55188,
    "lng": -73.593591,
    "first_seen": null,
    "last_seen": null,
    "aliases": []
  },
  {
    "name": "1ère  avenue / St-Zotique",
    "lat": 45.551937,
    "lng": -73.593928,
    "first_seen": null,
    "last_seen": null,
    "aliases": []
  },
  {
    "name": "1ère avenue / Jean-Talon",
    "lat": 45.554907,
    "lng": -73.601146,
    "first_seen": null,
    "last_seen": null,
    "aliases": [
      "1ere avenue / Jean-Talon"
    ]
  },
  {
    "name": "1ère avenue / Rosemont",
    "lat": 45.5478,
    "lng": -73.584867,
    "first_seen": null,
    "last_seen": null,
    "aliases": []
  },
  {
    "name": "1ère avenue / St-Zotique",
    "lat": 45.551917,
    "lng": -73.593664,
    "first_seen": null,
    "last_seen": null,
    "aliases": []
  },
  {
    "name": "20e avenue / de Bellechasse",
    "lat": 45.559935,
    "lng": -73.576805,
    "first_seen": null,
    "last_seen": null,
    "aliases": []
  },
  {
    "name": "21e avenue / St-Joseph Lachine",
    "lat": 45.433512,
    "lng": -73.683391,
    "first_seen": null,
    "last_seen": null,
    "aliases": []
  },
  {
    "name": "22e avenue / Everett",
    "lat": 45.567038,
    "lng": -73.594269,
    "first_seen": null,
    "last_seen": null,
    "aliases": [
      "22e avenue / Everett)"
    ]
  },
  {
    "name": "26e avenue / Beaubien",
    "lat": 45.564896,
    "lng": -73.57756,
    "first_seen": null,
    "last_seen": null,
    "aliases": []
  },
  {
    "name": "26e avenue / Bélanger",
    "lat": 45.567216,
    "lng": -73.585131,
    "first_seen": null,
    "last_seen": null,
    "aliases": []
  },
  {
    "name": "27e avenue / Rosemont",
    "lat": 45.563688,
    "lng": -73.571541,
    "first_seen": null,
    "last_seen": null,
    "aliases": []
  },
  {
    "name": "29e avenue / St-Zotique",
    "lat": 45.567766,
    "lng": -73.579688,
    "first_seen": null,
    "last_seen": null,
    "aliases": []
  },
  {
    "name": "29e avenue / de Bellechasse",
    "lat": 45.565418,
    "lng": -73.572311,
    "first_seen": null,
    "last_seen": null,
    "aliases": []
  },
  {
    "name": "2e Avenue / Beaubien",
    "lat": 45.550872,
    "lng": -73.589628,
    "first_seen": null,
    "last_seen": null,
    "aliases": []
  },
  {
    "name": "2e avenue / Centrale",
    "lat": 45.432895,
    "lng": -73.596855,
    "first_seen": null,
    "last_seen": null,
    "aliases": [
      "2e avenue /centrale"
    ]
  },
  {
    "name": "2e avenue / Jean-Rivard",
    "lat": 45.562509,
    "lng": -73.61656,
    "first_seen": null,
    "last_seen": null,
    "aliases": []
  },
  {
    "name": "2e avenue / Jean-Talon",
    "lat": 45.555544,
    "lng": -73.600558,
    "first_seen": null,
    "last_seen": null,
    "aliases": []
  },
  {
    "name": "2e avenue / St-Joseph",
    "lat": 45.544581,
    "lng": -73.571711,
    "first_seen": null,
    "last_seen": null,
    "aliases": []
  },
  {
    "name": "2e avenue / Wellington",
    "lat": 45.457893,
    "lng": -73.567528,
    "first_seen": null,
    "last_seen": null,
    "aliases": []
  },
  {
    "name": "30e avenue / de Bellechasse",
    "lat": 45.566009,
    "lng": -73.572189,
    "first_seen": null,
    "last_seen": null,
    "aliases": []
  },
  {
    "name": "35e avenue / Beaubien",
    "lat": 45.570052,
    "lng": -73.573056,
    "first_seen": null,
    "last_seen": null,
    "aliases": []
  },
  {
    "name": "35e avenue/  Beaubien",
    "lat": 45.569996,
    "lng": -73.573075,
    "first_seen": null,
    "last_seen": null,
    "aliases": [
      "35e avenue/Beaubien"
    ]
  },
  {
    "name": "3e avenue / Bannantyne",
    "lat": 45.457632,
    "lng": -73.576318,
    "first_seen": null,
    "last_seen": null,
    "aliases": []
  },
  {
    "name": "3e avenue / Holt",
    "lat": 45.548004,
    "lng": -73.58139,
    "first_seen": null,
    "last_seen": null,
    "aliases": []
  },
  {
    "name": "3e avenue / Wellington",
    "lat": 45.4573,
    "lng": -73.56725,
    "first_seen": null,
    "last_seen": null,
    "aliases": []
  },
  {
    "name": "41e avenue / Rosemont",
    "lat": 45.57179,
    "lng": -73.564315,
    "first_seen": null,
    "last_seen": null,
    "aliases": []
  },
  {
    "name": "41e avenue / Victoria",
    "lat": 45.440347,
    "lng": -73.702313,
    "first_seen": null,
    "last_seen": null,
    "aliases": []
  },
  {
    "name": "4e avenue / de Verdun",
    "lat": 45.456872,
    "lng": -73.572347,
    "first_seen": null,
    "last_seen": null,
    "aliases": []
  },
  {
    "name": "5e avenue / Bannantyne",
    "lat": 45.45641,
    "lng": -73.576105,
    "first_seen": null,
    "last_seen": null,
    "aliases": []
  },
  {
    "name": "5e avenue / Masson",
    "lat": 45.547544,
    "lng": -73.57536,
    "first_seen": null,
    "last_seen": null,
    "aliases": []
  },
  {
    "name": "5e avenue / Rosemont",
    "lat": 45.5499,
    "lng": -73.583084,
    "first_seen": null,
    "last_seen": null,
    "aliases": []
  },
  {
    "name": "6e Avenue / Bélanger",
    "lat": 45.554583,
    "lng": -73.596319,
    "first_seen": null,
    "last_seen": null,
    "aliases": []
  },
  {
    "name": "6e avenue / Bélanger",
    "lat": 45.554564,
    "lng": -73.596157,
    "first_seen": null,
    "last_seen": null,
    "aliases": []
  },
  {
    "name": "6e avenue / Villeray",
    "lat": 45.55874,
    "lng": -73.60589,
    "first_seen": null,
    "last_seen": null,
    "aliases": []
  },
  {
    "name": "6e avenue / Wellington",
    "lat": 45.455427,
    "lng": -73.567897,
    "first_seen": null,
    "last_seen": null,
    "aliases": []
  },
  {
    "name": "77e Avenue / 2e Rue",
    "lat": 45.536261,
    "lng": -73.736281,
    "first_seen": null,
    "last_seen": null,
    "aliases": []
  },
  {
    "name": "7e avenue / Jean-Rivard",
    "lat": 45.563606,
    "lng": -73.615886,
    "first_seen": null,
    "last_seen": null,
    "aliases": []
  },
  {
    "name": "7e avenue / Masson",
    "lat": 45.548632,
    "lng": -73.574696,
    "first_seen": null,
    "last_seen": null,
    "aliases": []
  },
  {
    "name": "7e avenue / St-Joseph Rosemont",
    "lat": 45.547108,
    "lng": -73.569367,
    "first_seen": null,
    "last_seen": null,
    "aliases": [
      "7e avenue / St-Joseph"
    ]
  },
  {
    "name": "8e Avenue / 15e rue",
    "lat": 45.565597,
    "lng": -73.697491,
    "first_seen": null,
    "last_seen": null,
    "aliases": []
  },
  {
    "name": "8e avenue / Beaubien",
    "lat": 45.553151,
    "lng": -73.587681,
    "first_seen": null,
    "last_seen": null,
    "aliases": []
  },
  {
    "name": "8e avenue / Dandurand",
    "lat": 45.550114,
    "lng": -73.577222,
    "first_seen": null,
    "last_seen": null,
    "aliases": []
  },
  {
    "name": "8e avenue / Notre-Dame Lachine",
    "lat": 45.434953,
    "lng": -73.670806,
    "first_seen": null,
    "last_seen": null,
    "aliases": []
  },
  {
    "name": "90e Avenue / Boulevard Lévesque O",
    "lat": 45.531215,
    "lng": -73.747353,
    "first_seen": null,
    "last_seen": null,
    "aliases": [
      "90e Avenue / Lévesque O"
    ]
  },
  {
    "name": "9599 (test cyclochrome)",
    "lat": 45.529922,
    "lng": -73.602004,
    "first_seen": null,
    "last_seen": null,
    "aliases": []
  },
  {
    "name": "9e avenue / Masson",
    "lat": 45.549501,
    "lng": -73.573296,
    "first_seen": null,
    "last_seen": null,
    "aliases": []
  },
  {
    "name": "Adam / d'Orleans",
    "lat": 45.547332,
    "lng": -73.538589,
    "first_seen": null,
    "last_seen": null,
    "aliases": []
  },
  {
    "name": "Aird / Pierre-de-Coubertin",
    "lat": 45.558925,
    "lng": -73.548057,
    "first_seen": null,
    "last_seen": null,
    "aliases": []
  },
  {
    "name": "Alexandra / Jean-Talon",
    "lat": 45.532331,
    "lng": -73.620187,
    "first_seen": null,
    "last_seen": null,
    "aliases": []
  },
  {
    "name": "Alexandre-DeSève / Ontario",
    "lat": 45.524377,
    "lng": -73.560551,
    "first_seen": null,
    "last_seen": null,
    "aliases": [
      "Alexandre-DeSève  / Ontario"
    ]
  },
  {
    "name": "Alexandre-DeSève / Ste-Catherine",
    "lat": 45.52121,
    "lng": -73.553829,
    "first_seen": null,
    "last_seen": null,
    "aliases": []
  },
  {
    "name": "Alexandre-de-Sève / Ste-Catherine",
    "lat": 45.521208,
    "lng": -73.553769,
    "first_seen": null,
    "last_seen": null,
    "aliases": []
  },
  {
    "name": "Alexis-Nihon / St-Louis",
    "lat": 45.500339,
    "lng": -73.68262,
    "first_seen": null,
    "last_seen": null,
    "aliases": []
  },
  {
    "name": "Alfred Laliberté / de Poutrincourt",
    "lat": 45.53308,
    "lng": -73.694597,
    "first_seen": null,
    "last_seen": null,
    "aliases": []
  },
  {
    "name": "Alma / Dante",
    "lat": 45.53471,
    "lng": -73.61165,
    "first_seen": null,
    "last_seen": null,
    "aliases": []
  },
  {
    "name": "Alma / de Bellechasse",
    "lat": 45.531034,
    "lng": -73.603528,
    "first_seen": null,
    "last_seen": null,
    "aliases": []
  },
  {
    "name": "Alton-Goldbloom / Notre-Dame",
    "lat": 45.545026,
    "lng": -73.737877,
    "first_seen": null,
    "last_seen": null,
    "aliases": []
  },
  {
    "name": "André / de Rotterdam",
    "lat": 45.595149,
    "lng": -73.727757,
    "first_seen": null,
    "last_seen": null,
    "aliases": []
  },
  {
    "name": "André-Charpentier / René-Philippe",
    "lat": 45.496977,
    "lng": -73.49551,
    "first_seen": null,
    "last_seen": null,
    "aliases": []
  },
  {
    "name": "André-Laurendeau / Rachel",
    "lat": 45.542972,
    "lng": -73.562242,
    "first_seen": null,
    "last_seen": null,
    "aliases": []
  },
  {
    "name": "Ann / Ottawa",
    "lat": 45.49497,
    "lng": -73.558042,
    "first_seen": null,
    "last_seen": null,
    "aliases": []
  },
  {
    "name": "Ann / Wellington",
    "lat": 45.494524,
    "lng": -73.556758,
    "first_seen": null,
    "last_seen": null,
    "aliases": []
  },
  {
    "name": "Argyle / Bannantyne",
    "lat": 45.453313,
    "lng": -73.576779,
    "first_seen": null,
    "last_seen": null,
    "aliases": []
  },
  {
    "name": "Argyle / de Verdun",
    "lat": 45.453016,
    "lng": -73.571915,
    "first_seen": null,
    "last_seen": null,
    "aliases": []
  },
  {
    "name": "Armand-Frappier / Louis-R.-Renaud",
    "lat": 45.554765,
    "lng": -73.734257,
    "first_seen": null,
    "last_seen": null,
    "aliases": []
  },
  {
    "name": "Aréna Chaumont (Chaumont / des Ormeaux)",
    "lat": 45.610927,
    "lng": -73.546734,
    "first_seen": null,
    "last_seen": null,
    "aliases": []
  },
  {
    "name": "Aréna Martin-St-Louis (Sylvie / Lauzon)",
    "lat": 45.525664,
    "lng": -73.803376,
    "first_seen": null,
    "last_seen": null,
    "aliases": []
  },
  {
    "name": "Aréna Rodrigue-Gilbert (du Tricentenaire / de Montigny)",
    "lat": 45.651406,
    "lng": -73.500413,
    "first_seen": null,
    "last_seen": null,
    "aliases": []
  },
  {
    "name": "Atateken / du Square Amherst",
    "lat": 45.520629,
    "lng": -73.563915,
    "first_seen": null,
    "last_seen": null,
    "aliases": [
      "Marché St-Jacques (Atateken)"
    ]
  },
  {
    "name": "Ateliers municipaux de St-Laurent (Cavendish / Poirier)",
    "lat": 45.506176,
    "lng": -73.711186,
    "first_seen": null,
    "last_seen": null,
    "aliases": []
  },
  {
    "name": "Atwater / Greene",
    "lat": 45.480495,
    "lng": -73.577827,
    "first_seen": null,
    "last_seen": null,
    "aliases": []
  },
  {
    "name": "Atwater / Sherbrooke",
    "lat": 45.491226,
    "lng": -73.58763,
    "first_seen": null,
    "last_seen": null,
    "aliases": []
  },
  {
    "name": "Augustin-Cantin / Shearer",
    "lat": 45.483955,
    "lng": -73.563543,
    "first_seen": null,
    "last_seen": null,
    "aliases": []
  },
  {
    "name": "Aylmer / Prince-Arthur",
    "lat": 45.508567,
    "lng": -73.577698,
    "first_seen": null,
    "last_seen": null,
    "aliases": []
  },
  {
    "name": "Aylmer / Sherbrooke",
    "lat": 45.506463,
    "lng": -73.573098,
    "first_seen": null,
    "last_seen": null,
    "aliases": []
  },
  {
    "name": "Aylmer / Ste-Catherine",
    "lat": 45.504355,
    "lng": -73.568969,
    "first_seen": null,
    "last_seen": null,
    "aliases": []
  },
  {
    "name": "Aylwin / Ontario",
    "lat": 45.544288,
    "lng": -73.545277,
    "first_seen": null,
    "last_seen": null,
    "aliases": []
  },
  {
    "name": "BAnQ (Berri / de Maisonneuve)",
    "lat": 45.515299,
    "lng": -73.561273,
    "first_seen": null,
    "last_seen": null,
    "aliases": []
  },
  {
    "name": "BAnQ (Berri)",
    "lat": 45.516014,
    "lng": -73.56292,
    "first_seen": null,
    "last_seen": null,
    "aliases": []
  },
  {
    "name": "BIXI K5",
    "lat": 45.530298,
    "lng": -73.601398,
    "first_seen": null,
    "last_seen": null,
    "aliases": [
      "K5 Test Station"
    ]
  },
  {
    "name": "Ball / Bloomfield",
    "lat": 45.529997,
    "lng": -73.632871,
    "first_seen": null,
    "last_seen": null,
    "aliases": []
  },
  {
    "name": "Basile-Routhier / Chabanel",
    "lat": 45.549857,
    "lng": -73.647666,
    "first_seen": null,
    "last_seen": null,
    "aliases": []
  },
  {
    "name": "Basile-Routhier / Émile-Journault",
    "lat": 45.5482,
    "lng": -73.641727,
    "first_seen": null,
    "last_seen": null,
    "aliases": []
  },
  {
    "name": "Bassin Peel (Smith / de la Commune)",
    "lat": 45.492725,
    "lng": -73.556273,
    "first_seen": null,
    "last_seen": null,
    "aliases": []
  },
  {
    "name": "Bassin olympique (Chemin du Chenal le Moyne)",
    "lat": 45.516903,
    "lng": -73.527246,
    "first_seen": null,
    "last_seen": null,
    "aliases": []
  },
  {
    "name": "Beaconsfield / Sherbrooke",
    "lat": 45.467185,
    "lng": -73.622314,
    "first_seen": null,
    "last_seen": null,
    "aliases": []
  },
  {
    "name": "Beatty / de Verdun",
    "lat": 45.45073,
    "lng": -73.572575,
    "first_seen": null,
    "last_seen": null,
    "aliases": []
  },
  {
    "name": "Beaubien / 8e avenue",
    "lat": 45.553393,
    "lng": -73.587744,
    "first_seen": null,
    "last_seen": null,
    "aliases": []
  },
  {
    "name": "Beaubien / Clark",
    "lat": 45.530147,
    "lng": -73.609824,
    "first_seen": null,
    "last_seen": null,
    "aliases": []
  },
  {
    "name": "Beaucourt / Savoie",
    "lat": 45.606031,
    "lng": -73.72357,
    "first_seen": null,
    "last_seen": null,
    "aliases": []
  },
  {
    "name": "Beaucourt / St-Elzéar",
    "lat": 45.606348,
    "lng": -73.723894,
    "first_seen": null,
    "last_seen": null,
    "aliases": []
  },
  {
    "name": "Beaudet / Marcel-Laurin",
    "lat": 45.506843,
    "lng": -73.681757,
    "first_seen": null,
    "last_seen": null,
    "aliases": []
  },
  {
    "name": "Beaudry / Ontario",
    "lat": 45.521458,
    "lng": -73.56205,
    "first_seen": null,
    "last_seen": null,
    "aliases": []
  },
  {
    "name": "Beaudry / Sherbrooke",
    "lat": 45.523035,
    "lng": -73.565395,
    "first_seen": null,
    "last_seen": null,
    "aliases": []
  },
  {
    "name": "Beauregard / La Salle",
    "lat": 45.511127,
    "lng": -73.486088,
    "first_seen": null,
    "last_seen": null,
    "aliases": []
  },
  {
    "name": "Beauregard / Normandin",
    "lat": 45.560086,
    "lng": -73.766823,
    "first_seen": null,
    "last_seen": null,
    "aliases": []
  },
  {
    "name": "Beauregard / le Carrefour",
    "lat": 45.558273,
    "lng": -73.764681,
    "first_seen": null,
    "last_seen": null,
    "aliases": []
  },
  {
    "name": "Bel Air / St-Antoine",
    "lat": 45.482634,
    "lng": -73.584233,
    "first_seen": null,
    "last_seen": null,
    "aliases": []
  },
  {
    "name": "Bel-Air / St-Antoine",
    "lat": 45.48243,
    "lng": -73.58368,
    "first_seen": null,
    "last_seen": null,
    "aliases": []
  },
  {
    "name": "Belmont / Robert- Bourassa",
    "lat": 45.501456,
    "lng": -73.565995,
    "first_seen": null,
    "last_seen": null,
    "aliases": []
  },
  {
    "name": "Belmont / Robert-Bourassa",
    "lat": 45.501215,
    "lng": -73.566144,
    "first_seen": null,
    "last_seen": null,
    "aliases": []
  },
  {
    "name": "Bennett / Adam",
    "lat": 45.553651,
    "lng": -73.53415,
    "first_seen": null,
    "last_seen": null,
    "aliases": []
  },
  {
    "name": "Bennett / Ontario",
    "lat": 45.555551,
    "lng": -73.540102,
    "first_seen": null,
    "last_seen": null,
    "aliases": []
  },
  {
    "name": "Bennett / Pierre-de-Coubertin",
    "lat": 45.558164,
    "lng": -73.548432,
    "first_seen": null,
    "last_seen": null,
    "aliases": []
  },
  {
    "name": "Bennett / Ste-Catherine",
    "lat": 45.553132,
    "lng": -73.532581,
    "first_seen": null,
    "last_seen": null,
    "aliases": []
  },
  {
    "name": "Benny / Sherbrooke",
    "lat": 45.46487,
    "lng": -73.626571,
    "first_seen": null,
    "last_seen": null,
    "aliases": []
  },
  {
    "name": "Bercy / Rachel",
    "lat": 45.538403,
    "lng": -73.561964,
    "first_seen": null,
    "last_seen": null,
    "aliases": []
  },
  {
    "name": "Berlioz / de l'Île des Soeurs",
    "lat": 45.459986,
    "lng": -73.543956,
    "first_seen": null,
    "last_seen": null,
    "aliases": []
  },
  {
    "name": "Bernard / Jeanne-Mance",
    "lat": 45.524278,
    "lng": -73.604962,
    "first_seen": null,
    "last_seen": null,
    "aliases": []
  },
  {
    "name": "Bernard / St-Urbain",
    "lat": 45.526267,
    "lng": -73.603191,
    "first_seen": null,
    "last_seen": null,
    "aliases": []
  },
  {
    "name": "Berri / Cherrier",
    "lat": 45.519185,
    "lng": -73.569393,
    "first_seen": null,
    "last_seen": null,
    "aliases": []
  },
  {
    "name": "Berri / Gilford",
    "lat": 45.526776,
    "lng": -73.586061,
    "first_seen": null,
    "last_seen": null,
    "aliases": []
  },
  {
    "name": "Berri / Laurier",
    "lat": 45.528056,
    "lng": -73.588304,
    "first_seen": null,
    "last_seen": null,
    "aliases": []
  },
  {
    "name": "Berri / Rachel",
    "lat": 45.522739,
    "lng": -73.577232,
    "first_seen": null,
    "last_seen": null,
    "aliases": []
  },
  {
    "name": "Berri / de Maisonneuve",
    "lat": 45.515314,
    "lng": -73.56135,
    "first_seen": null,
    "last_seen": null,
    "aliases": []
  },
  {
    "name": "Berri /Ste-Catherine",
    "lat": 45.514691,
    "lng": -73.559901,
    "first_seen": null,
    "last_seen": null,
    "aliases": []
  },
  {
    "name": "Bertin / Eliot",
    "lat": 45.539804,
    "lng": -73.776157,
    "first_seen": null,
    "last_seen": null,
    "aliases": []
  },
  {
    "name": "Beurling / Godin",
    "lat": 45.447916,
    "lng": -73.583819,
    "first_seen": null,
    "last_seen": null,
    "aliases": []
  },
  {
    "name": "Bibliothèque Guy-Bélisle (Arthur-Sauvé / de la Grande-Côte)",
    "lat": 45.560786,
    "lng": -73.886569,
    "first_seen": null,
    "last_seen": null,
    "aliases": []
  },
  {
    "name": "Bibliothèque Jean-Corbeil (Goncourt / Place Montrichard)",
    "lat": 45.602728,
    "lng": -73.55793,
    "first_seen": null,
    "last_seen": null,
    "aliases": []
  },
  {
    "name": "Bibliothèque d'Ahuntsic (Lajeunesse / Fleury)",
    "lat": 45.5534,
    "lng": -73.662255,
    "first_seen": null,
    "last_seen": null,
    "aliases": [
      "Bibliothèque Hélène-Charbonneau (Lajeunesse)"
    ]
  },
  {
    "name": "Bibliothèque de Verdun (Brown / Bannantyne)",
    "lat": 45.448566,
    "lng": -73.57775,
    "first_seen": null,
    "last_seen": null,
    "aliases": []
  },
  {
    "name": "Bibliothèque du Boisé (Thimens / Todd)",
    "lat": 45.504635,
    "lng": -73.704432,
    "first_seen": null,
    "last_seen": null,
    "aliases": []
  },
  {
    "name": "Bibliothèque du Vieux-St-Laurent (de l'Église / Filiatrault)",
    "lat": 45.512843,
    "lng": -73.676124,
    "first_seen": null,
    "last_seen": null,
    "aliases": []
  },
  {
    "name": "Bibliothèque et Complexe aquatique Rosemont (8e avenue / Rosemont)",
    "lat": 45.55155,
    "lng": -73.582184,
    "first_seen": null,
    "last_seen": null,
    "aliases": []
  },
  {
    "name": "Bibliothèque et Complexe aquatique Rosemont (9e avenue / Rosemont)",
    "lat": 45.552023,
    "lng": -73.581718,
    "first_seen": null,
    "last_seen": null,
    "aliases": []
  },
  {
    "name": "Bishop / René-Lévesque",
    "lat": 45.495357,
    "lng": -73.573983,
    "first_seen": null,
    "last_seen": null,
    "aliases": []
  },
  {
    "name": "Bishop / Ste-Catherine",
    "lat": 45.496589,
    "lng": -73.576493,
    "first_seen": null,
    "last_seen": null,
    "aliases": []
  },
  {
    "name": "Bishop / de Maisonneuve",
    "lat": 45.497226,
    "lng": -73.577787,
    "first_seen": null,
    "last_seen": null,
    "aliases": []
  },
  {
    "name": "Bloomfied / Elmwood",
    "lat": 45.518256,
    "lng": -73.603206,
    "first_seen": null,
    "last_seen": null,
    "aliases": [
      "Bloomfield / Elmwood"
    ]
  },
  {
    "name": "Bloomfied / St-Viateur",
    "lat": 45.519104,
    "lng": -73.60519,
    "first_seen": null,
    "last_seen": null,
    "aliases": []
  },
  {
    "name": "Bloomfield / Ball",
    "lat": 45.529959,
    "lng": -73.632946,
    "first_seen": null,
    "last_seen": null,
    "aliases": []
  },
  {
    "name": "Bloomfield / Bernard",
    "lat": 45.520541,
    "lng": -73.608156,
    "first_seen": null,
    "last_seen": null,
    "aliases": []
  },
  {
    "name": "Bloomfield / Jean-Talon",
    "lat": 45.52746,
    "lng": -73.624175,
    "first_seen": null,
    "last_seen": null,
    "aliases": []
  },
  {
    "name": "Bloomfield / Van Horne",
    "lat": 45.52266,
    "lng": -73.61299,
    "first_seen": null,
    "last_seen": null,
    "aliases": []
  },
  {
    "name": "Boileau / Lacordaire",
    "lat": 45.572642,
    "lng": -73.541029,
    "first_seen": null,
    "last_seen": null,
    "aliases": []
  },
  {
    "name": "Boileau / Monsabré",
    "lat": 45.571759,
    "lng": -73.541762,
    "first_seen": null,
    "last_seen": null,
    "aliases": []
  },
  {
    "name": "Bois-de-Boulogne / Henri-Bourassa",
    "lat": 45.537684,
    "lng": -73.677544,
    "first_seen": null,
    "last_seen": null,
    "aliases": []
  },
  {
    "name": "Bordeaux / Mont-Royal",
    "lat": 45.534584,
    "lng": -73.57316,
    "first_seen": null,
    "last_seen": null,
    "aliases": []
  },
  {
    "name": "Bordeaux / Sherbrooke",
    "lat": 45.529971,
    "lng": -73.563053,
    "first_seen": null,
    "last_seen": null,
    "aliases": []
  },
  {
    "name": "Bossuet / Sherbrooke",
    "lat": 45.576113,
    "lng": -73.546944,
    "first_seen": null,
    "last_seen": null,
    "aliases": []
  },
  {
    "name": "Boucher / St-Denis",
    "lat": 45.527849,
    "lng": -73.591861,
    "first_seen": null,
    "last_seen": null,
    "aliases": []
  },
  {
    "name": "Bourbonnière / Hochelaga",
    "lat": 45.549877,
    "lng": -73.54923,
    "first_seen": null,
    "last_seen": null,
    "aliases": []
  },
  {
    "name": "Bourbonnière / Ontario",
    "lat": 45.547962,
    "lng": -73.543112,
    "first_seen": null,
    "last_seen": null,
    "aliases": []
  },
  {
    "name": "Bourbonnière / du Mont-Royal",
    "lat": 45.553595,
    "lng": -73.560546,
    "first_seen": null,
    "last_seen": null,
    "aliases": []
  },
  {
    "name": "Bourgeoys / Favard",
    "lat": 45.47993,
    "lng": -73.555921,
    "first_seen": null,
    "last_seen": null,
    "aliases": []
  },
  {
    "name": "Bourget / Notre-Dame",
    "lat": 45.479487,
    "lng": -73.581503,
    "first_seen": null,
    "last_seen": null,
    "aliases": []
  },
  {
    "name": "Bourget / St-Jacques",
    "lat": 45.480747,
    "lng": -73.583663,
    "first_seen": null,
    "last_seen": null,
    "aliases": []
  },
  {
    "name": "Bourret / Victoria",
    "lat": 45.493228,
    "lng": -73.634539,
    "first_seen": null,
    "last_seen": null,
    "aliases": []
  },
  {
    "name": "Boyer / Beaubien",
    "lat": 45.537041,
    "lng": -73.602026,
    "first_seen": null,
    "last_seen": null,
    "aliases": []
  },
  {
    "name": "Boyer / Bélanger",
    "lat": 45.54006,
    "lng": -73.60897,
    "first_seen": null,
    "last_seen": null,
    "aliases": []
  },
  {
    "name": "Boyer / Everett",
    "lat": 45.543182,
    "lng": -73.616167,
    "first_seen": null,
    "last_seen": null,
    "aliases": []
  },
  {
    "name": "Boyer / Jean-Talon",
    "lat": 45.541629,
    "lng": -73.61262,
    "first_seen": null,
    "last_seen": null,
    "aliases": []
  },
  {
    "name": "Boyer / Jean-Talon (nord)",
    "lat": 45.541759,
    "lng": -73.613001,
    "first_seen": null,
    "last_seen": null,
    "aliases": []
  },
  {
    "name": "Boyer / Rosemont",
    "lat": 45.534116,
    "lng": -73.595509,
    "first_seen": null,
    "last_seen": null,
    "aliases": []
  },
  {
    "name": "Boyer / St-Joseph",
    "lat": 45.529518,
    "lng": -73.584558,
    "first_seen": null,
    "last_seen": null,
    "aliases": []
  },
  {
    "name": "Boyer / St-Zotique",
    "lat": 45.53858,
    "lng": -73.605696,
    "first_seen": null,
    "last_seen": null,
    "aliases": []
  },
  {
    "name": "Boyer / de Bellechasse",
    "lat": 45.535789,
    "lng": -73.599347,
    "first_seen": null,
    "last_seen": null,
    "aliases": []
  },
  {
    "name": "Boyer / du Mont-Royal",
    "lat": 45.527433,
    "lng": -73.579918,
    "first_seen": null,
    "last_seen": null,
    "aliases": []
  },
  {
    "name": "Boyer /Laurier",
    "lat": 45.530371,
    "lng": -73.58651,
    "first_seen": null,
    "last_seen": null,
    "aliases": [
      "Boyer / Laurier"
    ]
  },
  {
    "name": "Brittany / Ainsley",
    "lat": 45.52589,
    "lng": -73.650034,
    "first_seen": null,
    "last_seen": null,
    "aliases": []
  },
  {
    "name": "Brébeuf / Curé-Poirier",
    "lat": 45.526883,
    "lng": -73.483393,
    "first_seen": null,
    "last_seen": null,
    "aliases": []
  },
  {
    "name": "Bégin / du Parc",
    "lat": 45.607909,
    "lng": -73.66508,
    "first_seen": null,
    "last_seen": null,
    "aliases": [
      "du Parc / Bégin"
    ]
  },
  {
    "name": "Bélanger / St-Denis",
    "lat": 45.53696,
    "lng": -73.61199,
    "first_seen": null,
    "last_seen": null,
    "aliases": []
  },
  {
    "name": "Bélanger / St-Laurent",
    "lat": 45.533134,
    "lng": -73.614728,
    "first_seen": null,
    "last_seen": null,
    "aliases": []
  },
  {
    "name": "Bélanger / des Galeries d'Anjou",
    "lat": 45.597221,
    "lng": -73.56279,
    "first_seen": null,
    "last_seen": null,
    "aliases": [
      "des Galeries d'Anjou / Bélanger"
    ]
  },
  {
    "name": "Bérard / des Lacquiers",
    "lat": 45.478117,
    "lng": -73.576722,
    "first_seen": null,
    "last_seen": null,
    "aliases": []
  },
  {
    "name": "CCI Outremont (Dollard / Ducharme)",
    "lat": 45.520019,
    "lng": -73.618907,
    "first_seen": null,
    "last_seen": null,
    "aliases": [
      "CCI Outremont (Dollard / Durcharme)"
    ]
  },
  {
    "name": "CHSLD Joseph-François-Perrault (St-Michel / Everett)",
    "lat": 45.559697,
    "lng": -73.60146,
    "first_seen": null,
    "last_seen": null,
    "aliases": []
  },
  {
    "name": "CHSLD Robert Cliche (de Bellechasse / 16e avenue)",
    "lat": 45.557568,
    "lng": -73.579191,
    "first_seen": null,
    "last_seen": null,
    "aliases": []
  },
  {
    "name": "CHSLD St-Michel (8e avenue / Jarry)",
    "lat": 45.56169,
    "lng": -73.610512,
    "first_seen": null,
    "last_seen": null,
    "aliases": []
  },
  {
    "name": "CHU Ste-Justine (de la Côte Ste-Catherine / Hudson)",
    "lat": 45.503982,
    "lng": -73.622839,
    "first_seen": null,
    "last_seen": null,
    "aliases": []
  },
  {
    "name": "CIUSSS (du Trianon / Pierre-de-Coubertin)",
    "lat": 45.587531,
    "lng": -73.531907,
    "first_seen": null,
    "last_seen": null,
    "aliases": []
  },
  {
    "name": "Cadillac / Sherbrooke",
    "lat": 45.576963,
    "lng": -73.546836,
    "first_seen": null,
    "last_seen": null,
    "aliases": []
  },
  {
    "name": "Calixa-Lavallée / Rachel",
    "lat": 45.5278,
    "lng": -73.571849,
    "first_seen": null,
    "last_seen": null,
    "aliases": []
  },
  {
    "name": "Calixa-Lavallée / Rachel (ouest)",
    "lat": 45.527831,
    "lng": -73.571959,
    "first_seen": null,
    "last_seen": null,
    "aliases": [
      "Calixa-Lavallée/Rachel"
    ]
  },
  {
    "name": "Calixa-Lavallée / Rachel 2",
    "lat": 45.527798,
    "lng": -73.571915,
    "first_seen": null,
    "last_seen": null,
    "aliases": []
  },
  {
    "name": "Calixa-Lavallée / Sherbrooke",
    "lat": 45.52479,
    "lng": -73.56545,
    "first_seen": null,
    "last_seen": null,
    "aliases": []
  },
  {
    "name": "Campus MIL (Outremont / Thérèse-Lavoie Roux)",
    "lat": 45.52308,
    "lng": -73.61808,
    "first_seen": null,
    "last_seen": null,
    "aliases": []
  },
  {
    "name": "Campus MIL (Thérèse-Lavoie Roux / Outremont)",
    "lat": 45.523044,
    "lng": -73.618185,
    "first_seen": null,
    "last_seen": null,
    "aliases": []
  },
  {
    "name": "Canning / Notre-Dame",
    "lat": 45.486319,
    "lng": -73.570233,
    "first_seen": null,
    "last_seen": null,
    "aliases": []
  },
  {
    "name": "Canora / Cornwall",
    "lat": 45.516643,
    "lng": -73.643241,
    "first_seen": null,
    "last_seen": null,
    "aliases": [
      "REM Ville-de-Mont-Royal (Canora)"
    ]
  },
  {
    "name": "Carrefour Angrignon (Angrignon / Newman)",
    "lat": 45.448434,
    "lng": -73.612945,
    "first_seen": null,
    "last_seen": null,
    "aliases": []
  },
  {
    "name": "Cartier / 64e avenue",
    "lat": 45.5418,
    "lng": -73.728445,
    "first_seen": null,
    "last_seen": null,
    "aliases": []
  },
  {
    "name": "Cartier / Beaubien",
    "lat": 45.543865,
    "lng": -73.596304,
    "first_seen": null,
    "last_seen": null,
    "aliases": []
  },
  {
    "name": "Cartier / Bélanger",
    "lat": 45.546787,
    "lng": -73.602747,
    "first_seen": null,
    "last_seen": null,
    "aliases": []
  },
  {
    "name": "Cartier / Dandurand",
    "lat": 45.539236,
    "lng": -73.585946,
    "first_seen": null,
    "last_seen": null,
    "aliases": []
  },
  {
    "name": "Cartier / Gillford",
    "lat": 45.535288,
    "lng": -73.577381,
    "first_seen": null,
    "last_seen": null,
    "aliases": [
      "Cartier / Gilford"
    ]
  },
  {
    "name": "Cartier / Marie-Anne",
    "lat": 45.532768,
    "lng": -73.571867,
    "first_seen": null,
    "last_seen": null,
    "aliases": []
  },
  {
    "name": "Cartier / Masson",
    "lat": 45.538036,
    "lng": -73.583511,
    "first_seen": null,
    "last_seen": null,
    "aliases": []
  },
  {
    "name": "Cartier / Rosemont",
    "lat": 45.541218,
    "lng": -73.591015,
    "first_seen": null,
    "last_seen": null,
    "aliases": []
  },
  {
    "name": "Cartier / St-Joseph",
    "lat": 45.535828,
    "lng": -73.57869,
    "first_seen": null,
    "last_seen": null,
    "aliases": []
  },
  {
    "name": "Cartier / du Coteau-Rouge",
    "lat": 45.519432,
    "lng": -73.496893,
    "first_seen": null,
    "last_seen": null,
    "aliases": []
  },
  {
    "name": "Casgrain / Maguire",
    "lat": 45.526103,
    "lng": -73.595558,
    "first_seen": null,
    "last_seen": null,
    "aliases": []
  },
  {
    "name": "Casgrain / St-Viateur",
    "lat": 45.527511,
    "lng": -73.598797,
    "first_seen": null,
    "last_seen": null,
    "aliases": []
  },
  {
    "name": "Casgrain / de Castelnau",
    "lat": 45.536657,
    "lng": -73.619062,
    "first_seen": null,
    "last_seen": null,
    "aliases": []
  },
  {
    "name": "Casino de Montréal",
    "lat": 45.506373,
    "lng": -73.524577,
    "first_seen": null,
    "last_seen": null,
    "aliases": []
  },
  {
    "name": "Cathcart / McGill College",
    "lat": 45.501188,
    "lng": -73.570455,
    "first_seen": null,
    "last_seen": null,
    "aliases": []
  },
  {
    "name": "Cavendish / Dr.-Frederick-Philips",
    "lat": 45.497365,
    "lng": -73.700855,
    "first_seen": null,
    "last_seen": null,
    "aliases": []
  },
  {
    "name": "Centre des loisirs (Tassé / Grenet)",
    "lat": 45.514734,
    "lng": -73.691449,
    "first_seen": null,
    "last_seen": null,
    "aliases": []
  },
  {
    "name": "Centre récréatif Édouard-Rivet (Lesage / Notre-Dame)",
    "lat": 45.628359,
    "lng": -73.500048,
    "first_seen": null,
    "last_seen": null,
    "aliases": []
  },
  {
    "name": "Centre récréatif Édouard-Rivet (Notre-Dame / Lesage)",
    "lat": 45.628462,
    "lng": -73.499522,
    "first_seen": null,
    "last_seen": null,
    "aliases": []
  },
  {
    "name": "Centre ÉPIC (St-Zotique / 40e avenue)",
    "lat": 45.574147,
    "lng": -73.574621,
    "first_seen": null,
    "last_seen": null,
    "aliases": []
  },
  {
    "name": "Chabanel / Esplanade",
    "lat": 45.541323,
    "lng": -73.652713,
    "first_seen": null,
    "last_seen": null,
    "aliases": []
  },
  {
    "name": "Chabanel / Tolhurst",
    "lat": 45.540053,
    "lng": -73.653597,
    "first_seen": null,
    "last_seen": null,
    "aliases": []
  },
  {
    "name": "Chabanel / de l'Esplanade",
    "lat": 45.541052,
    "lng": -73.653047,
    "first_seen": null,
    "last_seen": null,
    "aliases": []
  },
  {
    "name": "Chabanel / du Parc",
    "lat": 45.538308,
    "lng": -73.654884,
    "first_seen": null,
    "last_seen": null,
    "aliases": []
  },
  {
    "name": "Chabot / Beaubien",
    "lat": 45.5444,
    "lng": -73.595708,
    "first_seen": null,
    "last_seen": null,
    "aliases": []
  },
  {
    "name": "Chabot / Laurier",
    "lat": 45.5369,
    "lng": -73.579476,
    "first_seen": null,
    "last_seen": null,
    "aliases": []
  },
  {
    "name": "Chabot / Villeray",
    "lat": 45.552289,
    "lng": -73.613006,
    "first_seen": null,
    "last_seen": null,
    "aliases": []
  },
  {
    "name": "Chabot / de Bellechasse",
    "lat": 45.54257,
    "lng": -73.592144,
    "first_seen": null,
    "last_seen": null,
    "aliases": []
  },
  {
    "name": "Chabot / du Mont-Royal",
    "lat": 45.534149,
    "lng": -73.573543,
    "first_seen": null,
    "last_seen": null,
    "aliases": [
      "Chabot / Mont-Royal"
    ]
  },
  {
    "name": "Chambord / Beaubien",
    "lat": 45.539916,
    "lng": -73.599352,
    "first_seen": null,
    "last_seen": null,
    "aliases": [
      "Chambord/ Beaubien"
    ]
  },
  {
    "name": "Chambord / Fleury",
    "lat": 45.559796,
    "lng": -73.658231,
    "first_seen": null,
    "last_seen": null,
    "aliases": []
  },
  {
    "name": "Chambord / Gilford",
    "lat": 45.531495,
    "lng": -73.581068,
    "first_seen": null,
    "last_seen": null,
    "aliases": []
  },
  {
    "name": "Chambord / Jean-Talon",
    "lat": 45.544846,
    "lng": -73.610536,
    "first_seen": null,
    "last_seen": null,
    "aliases": []
  },
  {
    "name": "Chambord / St-Joseph",
    "lat": 45.532064,
    "lng": -73.582263,
    "first_seen": null,
    "last_seen": null,
    "aliases": []
  },
  {
    "name": "Chambord / de Castelnau",
    "lat": 45.545369,
    "lng": -73.611762,
    "first_seen": null,
    "last_seen": null,
    "aliases": []
  },
  {
    "name": "Chambord / du Mont-Royal",
    "lat": 45.529712,
    "lng": -73.577218,
    "first_seen": null,
    "last_seen": null,
    "aliases": []
  },
  {
    "name": "Champdoré / de Lorimier",
    "lat": 45.566869,
    "lng": -73.641017,
    "first_seen": null,
    "last_seen": null,
    "aliases": []
  },
  {
    "name": "Chapleau / du Mont-Royal",
    "lat": 45.53867,
    "lng": -73.56936,
    "first_seen": null,
    "last_seen": null,
    "aliases": []
  },
  {
    "name": "Charles / Grand Boulevard",
    "lat": 45.491971,
    "lng": -73.471832,
    "first_seen": null,
    "last_seen": null,
    "aliases": []
  },
  {
    "name": "Charles / Mance",
    "lat": 45.49121,
    "lng": -73.472969,
    "first_seen": null,
    "last_seen": null,
    "aliases": []
  },
  {
    "name": "Charles-Biddle / Atwater",
    "lat": 45.479133,
    "lng": -73.575162,
    "first_seen": null,
    "last_seen": null,
    "aliases": []
  },
  {
    "name": "Charles-Daoust / 75e avenue",
    "lat": 45.542506,
    "lng": -73.740953,
    "first_seen": null,
    "last_seen": null,
    "aliases": []
  },
  {
    "name": "Charlevoix / Lionel-Groulx",
    "lat": 45.483928,
    "lng": -73.577312,
    "first_seen": null,
    "last_seen": null,
    "aliases": []
  },
  {
    "name": "Chomedey / Ste-Catherine",
    "lat": 45.491017,
    "lng": -73.582846,
    "first_seen": null,
    "last_seen": null,
    "aliases": []
  },
  {
    "name": "Chomedey / de Maisonneuve",
    "lat": 45.491773,
    "lng": -73.583973,
    "first_seen": null,
    "last_seen": null,
    "aliases": []
  },
  {
    "name": "Christophe Colomb / Gilford",
    "lat": 45.529703,
    "lng": -73.582885,
    "first_seen": null,
    "last_seen": null,
    "aliases": []
  },
  {
    "name": "Christophe-Colomb / Beaubien",
    "lat": 45.537839,
    "lng": -73.601156,
    "first_seen": null,
    "last_seen": null,
    "aliases": []
  },
  {
    "name": "Christophe-Colomb / Gilford",
    "lat": 45.529577,
    "lng": -73.582719,
    "first_seen": null,
    "last_seen": null,
    "aliases": []
  },
  {
    "name": "Christophe-Colomb / St-Joseph",
    "lat": 45.530365,
    "lng": -73.584393,
    "first_seen": null,
    "last_seen": null,
    "aliases": []
  },
  {
    "name": "Christophe-Colomb/Gilford",
    "lat": 45.529516,
    "lng": -73.582639,
    "first_seen": null,
    "last_seen": null,
    "aliases": []
  },
  {
    "name": "Churchill / Empire",
    "lat": 45.492118,
    "lng": -73.486724,
    "first_seen": null,
    "last_seen": null,
    "aliases": []
  },
  {
    "name": "City Councillors / de Maisonneuve",
    "lat": 45.505531,
    "lng": -73.56993,
    "first_seen": null,
    "last_seen": null,
    "aliases": []
  },
  {
    "name": "City Councillors / du President-Kennedy",
    "lat": 45.506251,
    "lng": -73.571391,
    "first_seen": null,
    "last_seen": null,
    "aliases": []
  },
  {
    "name": "City Councillors / du Président-Kennedy",
    "lat": 45.506342,
    "lng": -73.571487,
    "first_seen": null,
    "last_seen": null,
    "aliases": []
  },
  {
    "name": "Cité des Arts du Cirque (Paul Boutet / Jarry)",
    "lat": 45.559219,
    "lng": -73.61401,
    "first_seen": null,
    "last_seen": null,
    "aliases": [
      "Cité des Arts du Cirque (Paul-Boutet / Jarry)"
    ]
  },
  {
    "name": "Cité des Arts du Cirque (Paul Boutet / des Regrattiers)",
    "lat": 45.559854,
    "lng": -73.615481,
    "first_seen": null,
    "last_seen": null,
    "aliases": []
  },
  {
    "name": "Clanranald / de la Côte-St-Luc",
    "lat": 45.479008,
    "lng": -73.626927,
    "first_seen": null,
    "last_seen": null,
    "aliases": [
      "Clanranard / de la Côte-St-Luc"
    ]
  },
  {
    "name": "Clark / Evans",
    "lat": 45.511092,
    "lng": -73.567817,
    "first_seen": null,
    "last_seen": null,
    "aliases": []
  },
  {
    "name": "Clark / Fairmount",
    "lat": 45.523203,
    "lng": -73.594919,
    "first_seen": null,
    "last_seen": null,
    "aliases": []
  },
  {
    "name": "Clark / Fleury",
    "lat": 45.547582,
    "lng": -73.665232,
    "first_seen": null,
    "last_seen": null,
    "aliases": []
  },
  {
    "name": "Clark / Guizot",
    "lat": 45.539029,
    "lng": -73.635044,
    "first_seen": null,
    "last_seen": null,
    "aliases": []
  },
  {
    "name": "Clark / Laurier",
    "lat": 45.522583,
    "lng": -73.593599,
    "first_seen": null,
    "last_seen": null,
    "aliases": []
  },
  {
    "name": "Clark / Ontario",
    "lat": 45.510584,
    "lng": -73.566875,
    "first_seen": null,
    "last_seen": null,
    "aliases": [
      "Ontario / Clark"
    ]
  },
  {
    "name": "Clark / Prince-Arthur",
    "lat": 45.513325,
    "lng": -73.572991,
    "first_seen": null,
    "last_seen": null,
    "aliases": []
  },
  {
    "name": "Clark / Rachel",
    "lat": 45.517454,
    "lng": -73.582285,
    "first_seen": null,
    "last_seen": null,
    "aliases": []
  },
  {
    "name": "Clark / St-Viateur",
    "lat": 45.525179,
    "lng": -73.599307,
    "first_seen": null,
    "last_seen": null,
    "aliases": []
  },
  {
    "name": "Clark / St-Zotique",
    "lat": 45.531611,
    "lng": -73.61335,
    "first_seen": null,
    "last_seen": null,
    "aliases": []
  },
  {
    "name": "Clark / de Liège",
    "lat": 45.539987,
    "lng": -73.63812,
    "first_seen": null,
    "last_seen": null,
    "aliases": []
  },
  {
    "name": "Clark / de l'Arcade",
    "lat": 45.527372,
    "lng": -73.603984,
    "first_seen": null,
    "last_seen": null,
    "aliases": []
  },
  {
    "name": "Coffee / Elmhurst",
    "lat": 45.454792,
    "lng": -73.640392,
    "first_seen": null,
    "last_seen": null,
    "aliases": []
  },
  {
    "name": "Collège Ahuntsic (St-Hubert / Émile-Journault)",
    "lat": 45.551189,
    "lng": -73.640602,
    "first_seen": null,
    "last_seen": null,
    "aliases": []
  },
  {
    "name": "Collège André-Grasset (Crémazie / Christophe-Colomb)",
    "lat": 45.55099,
    "lng": -73.632166,
    "first_seen": null,
    "last_seen": null,
    "aliases": [
      "Collège Grasset (Crémazie / Christophe Colomb)"
    ]
  },
  {
    "name": "Collège Bois-de-Boulogne (Bois-de-Boulogne / Carrier)",
    "lat": 45.537979,
    "lng": -73.676475,
    "first_seen": null,
    "last_seen": null,
    "aliases": [
      "Collège Bois-de-Boulogne"
    ]
  },
  {
    "name": "Collège Bois-de-Boulogne (Bois-de-Boulogne)",
    "lat": 45.536907,
    "lng": -73.674781,
    "first_seen": null,
    "last_seen": null,
    "aliases": []
  },
  {
    "name": "Collège de Maisonneuve (Sherbrooke / Bourbonnière)",
    "lat": 45.551444,
    "lng": -73.554696,
    "first_seen": null,
    "last_seen": null,
    "aliases": []
  },
  {
    "name": "Collège de Rosemont (Beaubien / 15e avenue)",
    "lat": 45.55775,
    "lng": -73.583801,
    "first_seen": null,
    "last_seen": null,
    "aliases": [
      "Collège de Rosemont (15e avenue / Beaubien)"
    ]
  },
  {
    "name": "Collège Édouard-Montpetit (de Gentilly / de Normandie)",
    "lat": 45.537226,
    "lng": -73.495067,
    "first_seen": null,
    "last_seen": null,
    "aliases": []
  },
  {
    "name": "Coloniale / Duluth",
    "lat": 45.517869,
    "lng": -73.578427,
    "first_seen": null,
    "last_seen": null,
    "aliases": []
  },
  {
    "name": "Coloniale / Marie-Anne",
    "lat": 45.519974,
    "lng": -73.583077,
    "first_seen": null,
    "last_seen": null,
    "aliases": []
  },
  {
    "name": "Coloniale / Rachel",
    "lat": 45.519027,
    "lng": -73.581091,
    "first_seen": null,
    "last_seen": null,
    "aliases": []
  },
  {
    "name": "Complexe Aquatique Saint-Eustache (Arthur-Sauvé)",
    "lat": 45.56034,
    "lng": -73.896001,
    "first_seen": null,
    "last_seen": null,
    "aliases": []
  },
  {
    "name": "Complexe Desjardins (St-Urbain / René-Lévesque)",
    "lat": 45.507885,
    "lng": -73.563151,
    "first_seen": null,
    "last_seen": null,
    "aliases": []
  },
  {
    "name": "Complexe sportif Claude Robillard (Émile-Journault)",
    "lat": 45.552986,
    "lng": -73.638648,
    "first_seen": null,
    "last_seen": null,
    "aliases": []
  },
  {
    "name": "Complexe sportif Claude-Robillard",
    "lat": 45.553262,
    "lng": -73.638615,
    "first_seen": null,
    "last_seen": null,
    "aliases": []
  },
  {
    "name": "Complexe sportif Claude-Robillard (Émile-Journault)",
    "lat": 45.553644,
    "lng": -73.638346,
    "first_seen": null,
    "last_seen": null,
    "aliases": []
  },
  {
    "name": "Coolbrook / Queen-Mary",
    "lat": 45.482852,
    "lng": -73.630344,
    "first_seen": null,
    "last_seen": null,
    "aliases": []
  },
  {
    "name": "Crescent / René-Lévesque",
    "lat": 45.49599,
    "lng": -73.573335,
    "first_seen": null,
    "last_seen": null,
    "aliases": []
  },
  {
    "name": "Crescent / Ste-Catherine",
    "lat": 45.497315,
    "lng": -73.575908,
    "first_seen": null,
    "last_seen": null,
    "aliases": []
  },
  {
    "name": "Crescent / de Maisonneuve",
    "lat": 45.498116,
    "lng": -73.577606,
    "first_seen": null,
    "last_seen": null,
    "aliases": [
      "Bishop / de Maisonneuve S/E",
      "Crescent / de Maisonneuve N/E"
    ]
  },
  {
    "name": "Curé-Labelle / 77e Avenue",
    "lat": 45.538178,
    "lng": -73.737849,
    "first_seen": null,
    "last_seen": null,
    "aliases": []
  },
  {
    "name": "Curé-Poirier / Joliette",
    "lat": 45.52034,
    "lng": -73.487921,
    "first_seen": null,
    "last_seen": null,
    "aliases": []
  },
  {
    "name": "Curé-Poirier / Roland-Therrien",
    "lat": 45.537713,
    "lng": -73.47696,
    "first_seen": null,
    "last_seen": null,
    "aliases": []
  },
  {
    "name": "Cyclo Gervais",
    "lat": 45.530162,
    "lng": -73.601875,
    "first_seen": null,
    "last_seen": null,
    "aliases": [
      "Cyclo - Station de contrôle principale"
    ]
  },
  {
    "name": "Cypress / Peel",
    "lat": 45.499299,
    "lng": -73.571789,
    "first_seen": null,
    "last_seen": null,
    "aliases": []
  },
  {
    "name": "Cypress / Stanley",
    "lat": 45.498935,
    "lng": -73.572045,
    "first_seen": null,
    "last_seen": null,
    "aliases": []
  },
  {
    "name": "CÉGEP du Vieux-Montréal (Ontario / de l'Hôtel-de-Ville)",
    "lat": 45.514012,
    "lng": -73.565987,
    "first_seen": null,
    "last_seen": null,
    "aliases": [
      "Cégep du Vieux-Montréal (Ontario / de l'Hôtel-de-Ville)"
    ]
  },
  {
    "name": "Cégep André-Laurendeau (Lapierre)",
    "lat": 45.436055,
    "lng": -73.605775,
    "first_seen": null,
    "last_seen": null,
    "aliases": []
  },
  {
    "name": "Cégep Gérald-Godin (Gouin)",
    "lat": 45.48286,
    "lng": -73.868146,
    "first_seen": null,
    "last_seen": null,
    "aliases": [
      "CÉGEP Gérald-Godin (Gouin / Parc-Royal)"
    ]
  },
  {
    "name": "Cégep Marie-Victorin",
    "lat": 45.6175,
    "lng": -73.606011,
    "first_seen": null,
    "last_seen": null,
    "aliases": []
  },
  {
    "name": "Cégep Édouard-Montpetit (de Normandie)",
    "lat": 45.537246,
    "lng": -73.494982,
    "first_seen": null,
    "last_seen": null,
    "aliases": []
  },
  {
    "name": "Côte-des-Neiges / Carlton",
    "lat": 45.501737,
    "lng": -73.633847,
    "first_seen": null,
    "last_seen": null,
    "aliases": []
  },
  {
    "name": "Daisy-Peterson-Sweeney / Rufus-Rockhead",
    "lat": 45.48023,
    "lng": -73.574751,
    "first_seen": null,
    "last_seen": null,
    "aliases": []
  },
  {
    "name": "Dandurand / D'Iberville",
    "lat": 45.544372,
    "lng": -73.580951,
    "first_seen": null,
    "last_seen": null,
    "aliases": []
  },
  {
    "name": "Dandurand / de Lorimier",
    "lat": 45.540889,
    "lng": -73.584191,
    "first_seen": null,
    "last_seen": null,
    "aliases": []
  },
  {
    "name": "Daniel-Johnson / Cartier O",
    "lat": 45.543344,
    "lng": -73.725305,
    "first_seen": null,
    "last_seen": null,
    "aliases": []
  },
  {
    "name": "Darling / Sherbrooke",
    "lat": 45.545405,
    "lng": -73.556588,
    "first_seen": null,
    "last_seen": null,
    "aliases": []
  },
  {
    "name": "Darlington / Ekers",
    "lat": 45.510777,
    "lng": -73.6323,
    "first_seen": null,
    "last_seen": null,
    "aliases": []
  },
  {
    "name": "Darlington / Goyer",
    "lat": 45.51045,
    "lng": -73.631619,
    "first_seen": null,
    "last_seen": null,
    "aliases": []
  },
  {
    "name": "Darveau / de Lyon",
    "lat": 45.514086,
    "lng": -73.462865,
    "first_seen": null,
    "last_seen": null,
    "aliases": []
  },
  {
    "name": "Davaar / de la Côte-Ste-Catherine",
    "lat": 45.514379,
    "lng": -73.610871,
    "first_seen": null,
    "last_seen": null,
    "aliases": []
  },
  {
    "name": "De Bullion / Marie-Anne",
    "lat": 45.520545,
    "lng": -73.582916,
    "first_seen": null,
    "last_seen": null,
    "aliases": []
  },
  {
    "name": "De Callières / d'Auvergne",
    "lat": 45.593422,
    "lng": -73.669022,
    "first_seen": null,
    "last_seen": null,
    "aliases": [
      "de Callières / d'Auvergne"
    ]
  },
  {
    "name": "De la Commune / Autoroute Bonaventure",
    "lat": 45.493155,
    "lng": -73.553567,
    "first_seen": null,
    "last_seen": null,
    "aliases": []
  },
  {
    "name": "Delisle / George-Vanier",
    "lat": 45.485974,
    "lng": -73.572832,
    "first_seen": null,
    "last_seen": null,
    "aliases": []
  },
  {
    "name": "Des Érables / Villeray",
    "lat": 45.553948,
    "lng": -73.611575,
    "first_seen": null,
    "last_seen": null,
    "aliases": []
  },
  {
    "name": "Desaulniers / Marquette",
    "lat": 45.52468,
    "lng": -73.510467,
    "first_seen": null,
    "last_seen": null,
    "aliases": []
  },
  {
    "name": "Desjardins / Ontario",
    "lat": 45.551187,
    "lng": -73.540872,
    "first_seen": null,
    "last_seen": null,
    "aliases": []
  },
  {
    "name": "Dixie / 53e avenue",
    "lat": 45.443351,
    "lng": -73.716904,
    "first_seen": null,
    "last_seen": null,
    "aliases": []
  },
  {
    "name": "Dixie / 54e avenue",
    "lat": 45.443077,
    "lng": -73.717822,
    "first_seen": null,
    "last_seen": null,
    "aliases": []
  },
  {
    "name": "Dollard / Bernard",
    "lat": 45.516783,
    "lng": -73.611423,
    "first_seen": null,
    "last_seen": null,
    "aliases": []
  },
  {
    "name": "Dollard / Van Horne",
    "lat": 45.519048,
    "lng": -73.616227,
    "first_seen": null,
    "last_seen": null,
    "aliases": []
  },
  {
    "name": "Dorchester / Peel",
    "lat": 45.499591,
    "lng": -73.571915,
    "first_seen": null,
    "last_seen": null,
    "aliases": []
  },
  {
    "name": "Dorion / Gauthier",
    "lat": 45.530812,
    "lng": -73.566431,
    "first_seen": null,
    "last_seen": null,
    "aliases": []
  },
  {
    "name": "Dorion / Ontario",
    "lat": 45.526991,
    "lng": -73.558212,
    "first_seen": null,
    "last_seen": null,
    "aliases": []
  },
  {
    "name": "Dorion / Rachel",
    "lat": 45.531634,
    "lng": -73.568246,
    "first_seen": null,
    "last_seen": null,
    "aliases": []
  },
  {
    "name": "Dorion / Sherbrooke",
    "lat": 45.529352,
    "lng": -73.563318,
    "first_seen": null,
    "last_seen": null,
    "aliases": []
  },
  {
    "name": "Dorion / Ste-Catherine",
    "lat": 45.523601,
    "lng": -73.551257,
    "first_seen": null,
    "last_seen": null,
    "aliases": []
  },
  {
    "name": "Drolet / Beaubien",
    "lat": 45.533348,
    "lng": -73.605834,
    "first_seen": null,
    "last_seen": null,
    "aliases": []
  },
  {
    "name": "Drolet / Gounod",
    "lat": 45.540951,
    "lng": -73.626375,
    "first_seen": null,
    "last_seen": null,
    "aliases": []
  },
  {
    "name": "Drolet / Jarry",
    "lat": 45.541955,
    "lng": -73.629942,
    "first_seen": null,
    "last_seen": null,
    "aliases": []
  },
  {
    "name": "Drolet / Laurier",
    "lat": 45.526252,
    "lng": -73.589758,
    "first_seen": null,
    "last_seen": null,
    "aliases": []
  },
  {
    "name": "Drolet / Marie-Anne",
    "lat": 45.522403,
    "lng": -73.581177,
    "first_seen": null,
    "last_seen": null,
    "aliases": []
  },
  {
    "name": "Drolet / St-Zotique",
    "lat": 45.534882,
    "lng": -73.609412,
    "first_seen": null,
    "last_seen": null,
    "aliases": []
  },
  {
    "name": "Drummond / Sherbrooke",
    "lat": 45.500487,
    "lng": -73.578132,
    "first_seen": null,
    "last_seen": null,
    "aliases": []
  },
  {
    "name": "Drummond / Ste-Catherine",
    "lat": 45.498628,
    "lng": -73.574194,
    "first_seen": null,
    "last_seen": null,
    "aliases": []
  },
  {
    "name": "Drummond / de Maisonneuve",
    "lat": 45.499511,
    "lng": -73.576009,
    "first_seen": null,
    "last_seen": null,
    "aliases": []
  },
  {
    "name": "Drummond / des-Canadiens-de-Montréal",
    "lat": 45.496761,
    "lng": -73.570276,
    "first_seen": null,
    "last_seen": null,
    "aliases": []
  },
  {
    "name": "Du Quesne / Pierre-de-Coubertin",
    "lat": 45.575054,
    "lng": -73.538932,
    "first_seen": null,
    "last_seen": null,
    "aliases": []
  },
  {
    "name": "Du Quesne / de Marseille",
    "lat": 45.575812,
    "lng": -73.541231,
    "first_seen": null,
    "last_seen": null,
    "aliases": []
  },
  {
    "name": "Dubois / Eadie",
    "lat": 45.457602,
    "lng": -73.59052,
    "first_seen": null,
    "last_seen": null,
    "aliases": []
  },
  {
    "name": "Duchesneau / de Grosbois",
    "lat": 45.611294,
    "lng": -73.531215,
    "first_seen": null,
    "last_seen": null,
    "aliases": []
  },
  {
    "name": "Duchesneau / de Marseille",
    "lat": 45.609626,
    "lng": -73.522739,
    "first_seen": null,
    "last_seen": null,
    "aliases": []
  },
  {
    "name": "Dudemaine / James-Morrice",
    "lat": 45.534718,
    "lng": -73.692732,
    "first_seen": null,
    "last_seen": null,
    "aliases": []
  },
  {
    "name": "Dufault / Lesage",
    "lat": 45.601945,
    "lng": -73.664698,
    "first_seen": null,
    "last_seen": null,
    "aliases": []
  },
  {
    "name": "Dufour / de Chateaubriand",
    "lat": 45.541506,
    "lng": -73.617196,
    "first_seen": null,
    "last_seen": null,
    "aliases": []
  },
  {
    "name": "Dufresne / Ontario",
    "lat": 45.531325,
    "lng": -73.554367,
    "first_seen": null,
    "last_seen": null,
    "aliases": []
  },
  {
    "name": "Duke / Brennan",
    "lat": 45.495581,
    "lng": -73.553711,
    "first_seen": null,
    "last_seen": null,
    "aliases": []
  },
  {
    "name": "Duke / Nazareth",
    "lat": 45.495722,
    "lng": -73.554613,
    "first_seen": null,
    "last_seen": null,
    "aliases": []
  },
  {
    "name": "Duluth  / St-Denis",
    "lat": 45.520685,
    "lng": -73.5759,
    "first_seen": null,
    "last_seen": null,
    "aliases": []
  },
  {
    "name": "Duluth / Parc",
    "lat": 45.513771,
    "lng": -73.582402,
    "first_seen": null,
    "last_seen": null,
    "aliases": [
      "Duluth / du Parc"
    ]
  },
  {
    "name": "Duluth / St-Denis",
    "lat": 45.520628,
    "lng": -73.575949,
    "first_seen": null,
    "last_seen": null,
    "aliases": [
      "Duluth /St-Denis"
    ]
  },
  {
    "name": "Duluth / St-Laurent",
    "lat": 45.516876,
    "lng": -73.57946,
    "first_seen": null,
    "last_seen": null,
    "aliases": []
  },
  {
    "name": "Duluth / de l'Esplanade",
    "lat": 45.515115,
    "lng": -73.581093,
    "first_seen": null,
    "last_seen": null,
    "aliases": []
  },
  {
    "name": "Dunkirk / Laird",
    "lat": 45.515888,
    "lng": -73.642312,
    "first_seen": null,
    "last_seen": null,
    "aliases": []
  },
  {
    "name": "Durocher / Beaumont",
    "lat": 45.527999,
    "lng": -73.619215,
    "first_seen": null,
    "last_seen": null,
    "aliases": []
  },
  {
    "name": "Durocher / Bernard",
    "lat": 45.52224,
    "lng": -73.606728,
    "first_seen": null,
    "last_seen": null,
    "aliases": []
  },
  {
    "name": "Durocher / Bernard (nouvelle station)",
    "lat": 45.522315,
    "lng": -73.606945,
    "first_seen": null,
    "last_seen": null,
    "aliases": []
  },
  {
    "name": "Durocher / Prince-Arthur",
    "lat": 45.509231,
    "lng": -73.576976,
    "first_seen": null,
    "last_seen": null,
    "aliases": []
  },
  {
    "name": "Durocher / Sherbrooke",
    "lat": 45.507083,
    "lng": -73.572282,
    "first_seen": null,
    "last_seen": null,
    "aliases": []
  },
  {
    "name": "Durocher / St-Viateur",
    "lat": 45.520796,
    "lng": -73.603271,
    "first_seen": null,
    "last_seen": null,
    "aliases": []
  },
  {
    "name": "Duvernay / Charlevoix",
    "lat": 45.482098,
    "lng": -73.574877,
    "first_seen": null,
    "last_seen": null,
    "aliases": []
  },
  {
    "name": "Dézéry / Ontario",
    "lat": 45.541028,
    "lng": -73.547268,
    "first_seen": null,
    "last_seen": null,
    "aliases": []
  },
  {
    "name": "Eadie / Galt",
    "lat": 45.462998,
    "lng": -73.590119,
    "first_seen": null,
    "last_seen": null,
    "aliases": []
  },
  {
    "name": "Eadie / Holy-Cross",
    "lat": 45.456647,
    "lng": -73.590672,
    "first_seen": null,
    "last_seen": null,
    "aliases": []
  },
  {
    "name": "Earnscliffe / Queen-Mary",
    "lat": 45.481845,
    "lng": -73.630384,
    "first_seen": null,
    "last_seen": null,
    "aliases": []
  },
  {
    "name": "Edgar / Stratton",
    "lat": 45.500296,
    "lng": -73.463669,
    "first_seen": null,
    "last_seen": null,
    "aliases": []
  },
  {
    "name": "Edouard-Montpetit / de Stirling",
    "lat": 45.507379,
    "lng": -73.61486,
    "first_seen": null,
    "last_seen": null,
    "aliases": [
      "Edouard-Montpetit/de Stirling"
    ]
  },
  {
    "name": "Egan / Laurendeau",
    "lat": 45.452886,
    "lng": -73.589213,
    "first_seen": null,
    "last_seen": null,
    "aliases": []
  },
  {
    "name": "Eleanor / Ottawa",
    "lat": 45.492463,
    "lng": -73.560784,
    "first_seen": null,
    "last_seen": null,
    "aliases": []
  },
  {
    "name": "Elgar / de l'Île-des-Sœurs",
    "lat": 45.456823,
    "lng": -73.546804,
    "first_seen": null,
    "last_seen": null,
    "aliases": [
      "Parc Dan-Hanganu (Elgar / de l'Île-des-Sœurs)"
    ]
  },
  {
    "name": "Ellendale / de la Côte-des-Neiges",
    "lat": 45.499757,
    "lng": -73.629298,
    "first_seen": null,
    "last_seen": null,
    "aliases": []
  },
  {
    "name": "Elmwood / Mc Dougall",
    "lat": 45.517786,
    "lng": -73.60364,
    "first_seen": null,
    "last_seen": null,
    "aliases": [
      "Elmwood / McDougall",
      "Elmwood / Mcdougall"
    ]
  },
  {
    "name": "Empire / Régent",
    "lat": 45.484775,
    "lng": -73.47777,
    "first_seen": null,
    "last_seen": null,
    "aliases": []
  },
  {
    "name": "Entrepôt - Porte de Gaspé (communément entrée hiver)",
    "lat": 45.529855,
    "lng": -73.601983,
    "first_seen": null,
    "last_seen": null,
    "aliases": [
      "Cyclo winter station"
    ]
  },
  {
    "name": "Ernest-Gendreau / du Mont-Royal",
    "lat": 45.549714,
    "lng": -73.563848,
    "first_seen": null,
    "last_seen": null,
    "aliases": []
  },
  {
    "name": "Esther-Blondin / de Pierrefonds",
    "lat": 45.485955,
    "lng": -73.858292,
    "first_seen": null,
    "last_seen": null,
    "aliases": []
  },
  {
    "name": "Evans / Clark",
    "lat": 45.511084,
    "lng": -73.567978,
    "first_seen": null,
    "last_seen": null,
    "aliases": []
  },
  {
    "name": "Everett / Garnier",
    "lat": 45.547582,
    "lng": -73.612209,
    "first_seen": null,
    "last_seen": null,
    "aliases": []
  },
  {
    "name": "Fabre / Beaubien",
    "lat": 45.54206,
    "lng": -73.597873,
    "first_seen": null,
    "last_seen": null,
    "aliases": []
  },
  {
    "name": "Fabre / Bélanger",
    "lat": 45.545312,
    "lng": -73.604901,
    "first_seen": null,
    "last_seen": null,
    "aliases": [
      "Métro Fabre ( Fabre / Bélanger )"
    ]
  },
  {
    "name": "Fabre / Jean-Talon",
    "lat": 45.546635,
    "lng": -73.607765,
    "first_seen": null,
    "last_seen": null,
    "aliases": [
      "Métro Fabre (Fabre / Jean-Talon"
    ]
  },
  {
    "name": "Fabre / Laurier",
    "lat": 45.534572,
    "lng": -73.582564,
    "first_seen": null,
    "last_seen": null,
    "aliases": []
  },
  {
    "name": "Fabre / St-Zotique",
    "lat": 45.543565,
    "lng": -73.60115,
    "first_seen": null,
    "last_seen": null,
    "aliases": []
  },
  {
    "name": "Fabre / Villeray",
    "lat": 45.550144,
    "lng": -73.615812,
    "first_seen": null,
    "last_seen": null,
    "aliases": []
  },
  {
    "name": "Fabrik8 (Waverly / Jean-Talon)",
    "lat": 45.533307,
    "lng": -73.620822,
    "first_seen": null,
    "last_seen": null,
    "aliases": []
  },
  {
    "name": "Faillon / St-Denis",
    "lat": 45.53988,
    "lng": -73.620288,
    "first_seen": null,
    "last_seen": null,
    "aliases": []
  },
  {
    "name": "Fairmount / Hutchison",
    "lat": 45.519682,
    "lng": -73.598272,
    "first_seen": null,
    "last_seen": null,
    "aliases": [
      "Hutchison / Fairmount"
    ]
  },
  {
    "name": "Faribault / de Chambly",
    "lat": 45.522193,
    "lng": -73.465053,
    "first_seen": null,
    "last_seen": null,
    "aliases": []
  },
  {
    "name": "Favard / Charon",
    "lat": 45.479065,
    "lng": -73.55604,
    "first_seen": null,
    "last_seen": null,
    "aliases": []
  },
  {
    "name": "Fernand-Lafontaine / Adoncour",
    "lat": 45.551219,
    "lng": -73.483912,
    "first_seen": null,
    "last_seen": null,
    "aliases": []
  },
  {
    "name": "Fleury / Sackville",
    "lat": 45.576914,
    "lng": -73.64627,
    "first_seen": null,
    "last_seen": null,
    "aliases": []
  },
  {
    "name": "Fortune / Wellington",
    "lat": 45.477895,
    "lng": -73.558986,
    "first_seen": null,
    "last_seen": null,
    "aliases": []
  },
  {
    "name": "Francis / Fleury",
    "lat": 45.563872,
    "lng": -73.655568,
    "first_seen": null,
    "last_seen": null,
    "aliases": []
  },
  {
    "name": "Fredmir / de Pierrefonds",
    "lat": 45.500903,
    "lng": -73.838516,
    "first_seen": null,
    "last_seen": null,
    "aliases": []
  },
  {
    "name": "Frontenac / Ste-Catherine",
    "lat": 45.530063,
    "lng": -73.545592,
    "first_seen": null,
    "last_seen": null,
    "aliases": []
  },
  {
    "name": "Fullum / Gilford",
    "lat": 45.539206,
    "lng": -73.5738,
    "first_seen": null,
    "last_seen": null,
    "aliases": []
  },
  {
    "name": "Fullum / Hochelaga",
    "lat": 45.53304,
    "lng": -73.560628,
    "first_seen": null,
    "last_seen": null,
    "aliases": []
  },
  {
    "name": "Fullum / Holt",
    "lat": 45.54392,
    "lng": -73.584249,
    "first_seen": null,
    "last_seen": null,
    "aliases": []
  },
  {
    "name": "Fullum / Marie-Anne",
    "lat": 45.536505,
    "lng": -73.568039,
    "first_seen": null,
    "last_seen": null,
    "aliases": []
  },
  {
    "name": "Fullum / Ontario",
    "lat": 45.530317,
    "lng": -73.554867,
    "first_seen": null,
    "last_seen": null,
    "aliases": []
  },
  {
    "name": "Fullum / Sherbrooke",
    "lat": 45.533786,
    "lng": -73.562281,
    "first_seen": null,
    "last_seen": null,
    "aliases": []
  },
  {
    "name": "Fullum / Ste-Catherine",
    "lat": 45.527113,
    "lng": -73.547999,
    "first_seen": null,
    "last_seen": null,
    "aliases": [
      "Parc Hector-Toe-Blake ( Sussex / René-Levesque )"
    ]
  },
  {
    "name": "Fullum / Terrasse Mercure",
    "lat": 45.535505,
    "lng": -73.565939,
    "first_seen": null,
    "last_seen": null,
    "aliases": []
  },
  {
    "name": "Fullum / de Rouen",
    "lat": 45.532199,
    "lng": -73.558847,
    "first_seen": null,
    "last_seen": null,
    "aliases": []
  },
  {
    "name": "Fullum / de Rouen_SWAP ECO 5",
    "lat": 45.532331,
    "lng": -73.559069,
    "first_seen": null,
    "last_seen": null,
    "aliases": []
  },
  {
    "name": "Gagne / LaSalle",
    "lat": 45.422451,
    "lng": -73.601194,
    "first_seen": null,
    "last_seen": null,
    "aliases": []
  },
  {
    "name": "Galt / de Verdun",
    "lat": 45.462111,
    "lng": -73.57108,
    "first_seen": null,
    "last_seen": null,
    "aliases": []
  },
  {
    "name": "Gare Bois-de-Boulogne",
    "lat": 45.539726,
    "lng": -73.677165,
    "first_seen": null,
    "last_seen": null,
    "aliases": []
  },
  {
    "name": "Gare Centrale (de la Gauchetière / Mansfield)",
    "lat": 45.499825,
    "lng": -73.56608,
    "first_seen": null,
    "last_seen": null,
    "aliases": [
      "REM Gare Centrale (de la Gauchetière / Mansfield)",
      "de la Gauchetière / Mansfield"
    ]
  },
  {
    "name": "Gare LaSalle (Highlands)",
    "lat": 45.425613,
    "lng": -73.657136,
    "first_seen": null,
    "last_seen": null,
    "aliases": []
  },
  {
    "name": "Gare Lachine (Sir George Simpson / 48e avenue)",
    "lat": 45.447821,
    "lng": -73.710918,
    "first_seen": null,
    "last_seen": null,
    "aliases": []
  },
  {
    "name": "Gare Montpellier (Muir / de la Côte-Vertu)",
    "lat": 45.52374,
    "lng": -73.671699,
    "first_seen": null,
    "last_seen": null,
    "aliases": [
      "REM Montpellier (Muir / de la Côte-Vertu)"
    ]
  },
  {
    "name": "Gare Montréal-Ouest (Coffee / Elmhurst)",
    "lat": 45.45475,
    "lng": -73.640435,
    "first_seen": null,
    "last_seen": null,
    "aliases": []
  },
  {
    "name": "Gare REM Deux-Montagnes (de Deux-Montagnes)",
    "lat": 45.544576,
    "lng": -73.912031,
    "first_seen": null,
    "last_seen": null,
    "aliases": [
      "REM Deux-Montagnes (de Deux-Montagnes)"
    ]
  },
  {
    "name": "Gare St-Michel / Montréal-Nord (Pie-IX / 56e)",
    "lat": 45.583198,
    "lng": -73.629787,
    "first_seen": null,
    "last_seen": null,
    "aliases": []
  },
  {
    "name": "Gare Ste-Dorothée (Hector-Nadon / du Chemin-de-Fer)",
    "lat": 45.524445,
    "lng": -73.862294,
    "first_seen": null,
    "last_seen": null,
    "aliases": [
      "REM Ste-Dorothée (Hector-Nadon / du Chemin-de-Fer)"
    ]
  },
  {
    "name": "Gare Ste-Rose (Ste-Rose E)",
    "lat": 45.62564,
    "lng": -73.765398,
    "first_seen": null,
    "last_seen": null,
    "aliases": []
  },
  {
    "name": "Gare Vimont (Bellerose O)",
    "lat": 45.603939,
    "lng": -73.74249,
    "first_seen": null,
    "last_seen": null,
    "aliases": []
  },
  {
    "name": "Gare d'autocars de Montréal (Berri / Ontario)",
    "lat": 45.516911,
    "lng": -73.564102,
    "first_seen": null,
    "last_seen": null,
    "aliases": []
  },
  {
    "name": "Gare du Ruisseau (Dutrisac / Henri-Bourassa)",
    "lat": 45.528144,
    "lng": -73.692545,
    "first_seen": null,
    "last_seen": null,
    "aliases": [
      "REM du Ruisseau (Dutrisac / Henri-Bourassa)"
    ]
  },
  {
    "name": "Garnier / Beaubien",
    "lat": 45.541464,
    "lng": -73.598406,
    "first_seen": null,
    "last_seen": null,
    "aliases": []
  },
  {
    "name": "Garnier / Gilford",
    "lat": 45.532507,
    "lng": -73.580161,
    "first_seen": null,
    "last_seen": null,
    "aliases": []
  },
  {
    "name": "Garnier / St-Grégoire",
    "lat": 45.535827,
    "lng": -73.587065,
    "first_seen": null,
    "last_seen": null,
    "aliases": []
  },
  {
    "name": "Garnier / St-Joseph",
    "lat": 45.533085,
    "lng": -73.581367,
    "first_seen": null,
    "last_seen": null,
    "aliases": []
  },
  {
    "name": "Garnier / Villeray",
    "lat": 45.54948,
    "lng": -73.616055,
    "first_seen": null,
    "last_seen": null,
    "aliases": []
  },
  {
    "name": "Garnier / du Mont-Royal",
    "lat": 45.530756,
    "lng": -73.576176,
    "first_seen": null,
    "last_seen": null,
    "aliases": [
      "Garnier / Mont-Royal"
    ]
  },
  {
    "name": "Gary-Carter / St-Laurent",
    "lat": 45.536009,
    "lng": -73.622494,
    "first_seen": null,
    "last_seen": null,
    "aliases": []
  },
  {
    "name": "Gascon / de Rouen",
    "lat": 45.535352,
    "lng": -73.555395,
    "first_seen": null,
    "last_seen": null,
    "aliases": []
  },
  {
    "name": "Gauthier / Papineau",
    "lat": 45.529667,
    "lng": -73.567335,
    "first_seen": null,
    "last_seen": null,
    "aliases": []
  },
  {
    "name": "Gauthier / Parthenais",
    "lat": 45.532926,
    "lng": -73.56378,
    "first_seen": null,
    "last_seen": null,
    "aliases": []
  },
  {
    "name": "Gauthier / de Lorimier",
    "lat": 45.531668,
    "lng": -73.565384,
    "first_seen": null,
    "last_seen": null,
    "aliases": []
  },
  {
    "name": "Gaétan-Laberge / de l'Église",
    "lat": 45.463245,
    "lng": -73.562469,
    "first_seen": null,
    "last_seen": null,
    "aliases": []
  },
  {
    "name": "Georges-Baril / Sauriol",
    "lat": 45.557518,
    "lng": -73.655851,
    "first_seen": null,
    "last_seen": null,
    "aliases": []
  },
  {
    "name": "Georges-Vanier / Notre-Dame",
    "lat": 45.485053,
    "lng": -73.57196,
    "first_seen": null,
    "last_seen": null,
    "aliases": [
      "Georges-Vanier /  Notre-Dame"
    ]
  },
  {
    "name": "Gerry-Boulet / St-Grégoire",
    "lat": 45.533735,
    "lng": -73.589307,
    "first_seen": null,
    "last_seen": null,
    "aliases": []
  },
  {
    "name": "Gilford / Drolet",
    "lat": 45.52397,
    "lng": -73.585075,
    "first_seen": null,
    "last_seen": null,
    "aliases": []
  },
  {
    "name": "Gilford / Papineau",
    "lat": 45.534405,
    "lng": -73.578226,
    "first_seen": null,
    "last_seen": null,
    "aliases": []
  },
  {
    "name": "Gilford / Parthenais",
    "lat": 45.537829,
    "lng": -73.574809,
    "first_seen": null,
    "last_seen": null,
    "aliases": []
  },
  {
    "name": "Gilford / St-Denis",
    "lat": 45.525033,
    "lng": -73.585759,
    "first_seen": null,
    "last_seen": null,
    "aliases": []
  },
  {
    "name": "Gilford / de Brébeuf",
    "lat": 45.530855,
    "lng": -73.581577,
    "first_seen": null,
    "last_seen": null,
    "aliases": []
  },
  {
    "name": "Gilford / de Lanaudière",
    "lat": 45.532008,
    "lng": -73.580444,
    "first_seen": null,
    "last_seen": null,
    "aliases": []
  },
  {
    "name": "Gilford / de la Roche",
    "lat": 45.530207,
    "lng": -73.582071,
    "first_seen": null,
    "last_seen": null,
    "aliases": []
  },
  {
    "name": "Gilford / des Érables",
    "lat": 45.537427,
    "lng": -73.575215,
    "first_seen": null,
    "last_seen": null,
    "aliases": []
  },
  {
    "name": "Glengarry / Graham",
    "lat": 45.50919,
    "lng": -73.660327,
    "first_seen": null,
    "last_seen": null,
    "aliases": []
  },
  {
    "name": "Gloria / Dollard",
    "lat": 45.429711,
    "lng": -73.633883,
    "first_seen": null,
    "last_seen": null,
    "aliases": []
  },
  {
    "name": "Gordon / Wellington",
    "lat": 45.461059,
    "lng": -73.567148,
    "first_seen": null,
    "last_seen": null,
    "aliases": []
  },
  {
    "name": "Gordon / de Verdun",
    "lat": 45.461259,
    "lng": -73.571843,
    "first_seen": null,
    "last_seen": null,
    "aliases": []
  },
  {
    "name": "Goyer / Côte-des-Neiges",
    "lat": 45.503191,
    "lng": -73.636579,
    "first_seen": null,
    "last_seen": null,
    "aliases": []
  },
  {
    "name": "Graham / Brookfield",
    "lat": 45.520222,
    "lng": -73.629856,
    "first_seen": null,
    "last_seen": null,
    "aliases": []
  },
  {
    "name": "Graham / Kindersley",
    "lat": 45.514065,
    "lng": -73.647104,
    "first_seen": null,
    "last_seen": null,
    "aliases": []
  },
  {
    "name": "Graham / Laird",
    "lat": 45.516474,
    "lng": -73.641985,
    "first_seen": null,
    "last_seen": null,
    "aliases": []
  },
  {
    "name": "Graham / Wicksteed",
    "lat": 45.516937,
    "lng": -73.640483,
    "first_seen": null,
    "last_seen": null,
    "aliases": []
  },
  {
    "name": "Grand Boulevard / Sherbrooke",
    "lat": 45.466586,
    "lng": -73.623325,
    "first_seen": null,
    "last_seen": null,
    "aliases": []
  },
  {
    "name": "Grand Boulevard / de Terrebonne",
    "lat": 45.470525,
    "lng": -73.631656,
    "first_seen": null,
    "last_seen": null,
    "aliases": []
  },
  {
    "name": "Grand Trunk / d'Hibernia",
    "lat": 45.47968,
    "lng": -73.56385,
    "first_seen": null,
    "last_seen": null,
    "aliases": []
  },
  {
    "name": "Greene / Workman",
    "lat": 45.481069,
    "lng": -73.579352,
    "first_seen": null,
    "last_seen": null,
    "aliases": []
  },
  {
    "name": "Grenet / Poirier",
    "lat": 45.518719,
    "lng": -73.698754,
    "first_seen": null,
    "last_seen": null,
    "aliases": []
  },
  {
    "name": "Grey / Sherbrooke",
    "lat": 45.476399,
    "lng": -73.606327,
    "first_seen": null,
    "last_seen": null,
    "aliases": []
  },
  {
    "name": "Grove / Miller",
    "lat": 45.482371,
    "lng": -73.475148,
    "first_seen": null,
    "last_seen": null,
    "aliases": []
  },
  {
    "name": "Guilbault / Clark",
    "lat": 45.514108,
    "lng": -73.57523,
    "first_seen": null,
    "last_seen": null,
    "aliases": []
  },
  {
    "name": "Guilbault / St-Charles",
    "lat": 45.535872,
    "lng": -73.512644,
    "first_seen": null,
    "last_seen": null,
    "aliases": []
  },
  {
    "name": "Guizot / St-Denis",
    "lat": 45.543424,
    "lng": -73.632462,
    "first_seen": null,
    "last_seen": null,
    "aliases": []
  },
  {
    "name": "Guizot / St-Laurent",
    "lat": 45.539674,
    "lng": -73.634491,
    "first_seen": null,
    "last_seen": null,
    "aliases": []
  },
  {
    "name": "Guy / Barré",
    "lat": 45.489701,
    "lng": -73.566288,
    "first_seen": null,
    "last_seen": null,
    "aliases": []
  },
  {
    "name": "Guy / Notre-Dame",
    "lat": 45.490027,
    "lng": -73.567094,
    "first_seen": null,
    "last_seen": null,
    "aliases": [
      "Guy / Notre-Dame  S/O"
    ]
  },
  {
    "name": "Guy / Sainte-Catherine",
    "lat": 45.494975,
    "lng": -73.57777,
    "first_seen": null,
    "last_seen": null,
    "aliases": []
  },
  {
    "name": "HEC (Decelles / Jean-Brillant)",
    "lat": 45.497723,
    "lng": -73.619253,
    "first_seen": null,
    "last_seen": null,
    "aliases": []
  },
  {
    "name": "Halte de Sedan (16e Rue / Pl. de la 16 Rue)",
    "lat": 45.564632,
    "lng": -73.699172,
    "first_seen": null,
    "last_seen": null,
    "aliases": []
  },
  {
    "name": "Hamel / Sauriol",
    "lat": 45.56157,
    "lng": -73.653382,
    "first_seen": null,
    "last_seen": null,
    "aliases": []
  },
  {
    "name": "Hamel / Sauvé",
    "lat": 45.560762,
    "lng": -73.650561,
    "first_seen": null,
    "last_seen": null,
    "aliases": []
  },
  {
    "name": "Hamilton / Jolicoeur",
    "lat": 45.456472,
    "lng": -73.597582,
    "first_seen": null,
    "last_seen": null,
    "aliases": []
  },
  {
    "name": "Hamilton/Jolicoeur",
    "lat": 45.456707,
    "lng": -73.597648,
    "first_seen": null,
    "last_seen": null,
    "aliases": []
  },
  {
    "name": "Harvard / de Monkland",
    "lat": 45.474565,
    "lng": -73.624036,
    "first_seen": null,
    "last_seen": null,
    "aliases": []
  },
  {
    "name": "Henri-Julien / Duluth",
    "lat": 45.519662,
    "lng": -73.576749,
    "first_seen": null,
    "last_seen": null,
    "aliases": []
  },
  {
    "name": "Henri-Julien / Laurier",
    "lat": 45.525766,
    "lng": -73.590334,
    "first_seen": null,
    "last_seen": null,
    "aliases": []
  },
  {
    "name": "Henri-Julien / de Bellechasse",
    "lat": 45.530414,
    "lng": -73.604128,
    "first_seen": null,
    "last_seen": null,
    "aliases": []
  },
  {
    "name": "Henri-Julien / de Castelnau",
    "lat": 45.537891,
    "lng": -73.618215,
    "first_seen": null,
    "last_seen": null,
    "aliases": []
  },
  {
    "name": "Henri-Julien / du Carmel",
    "lat": 45.52791,
    "lng": -73.594948,
    "first_seen": null,
    "last_seen": null,
    "aliases": []
  },
  {
    "name": "Henri-Julien / du Mont-Royal",
    "lat": 45.523029,
    "lng": -73.584092,
    "first_seen": null,
    "last_seen": null,
    "aliases": [
      "Henri-Julien / Mont-Royal"
    ]
  },
  {
    "name": "Henri-Julien / Émile-Journault",
    "lat": 45.545376,
    "lng": -73.643417,
    "first_seen": null,
    "last_seen": null,
    "aliases": []
  },
  {
    "name": "Hickson / Wellington",
    "lat": 45.464851,
    "lng": -73.567075,
    "first_seen": null,
    "last_seen": null,
    "aliases": []
  },
  {
    "name": "Hillside / Ste-Catherine",
    "lat": 45.482832,
    "lng": -73.590864,
    "first_seen": null,
    "last_seen": null,
    "aliases": []
  },
  {
    "name": "Hingston / Somerled",
    "lat": 45.473516,
    "lng": -73.634203,
    "first_seen": null,
    "last_seen": null,
    "aliases": []
  },
  {
    "name": "Hingston / de Monkland",
    "lat": 45.470499,
    "lng": -73.627587,
    "first_seen": null,
    "last_seen": null,
    "aliases": []
  },
  {
    "name": "Hochelaga / Chapleau",
    "lat": 45.534435,
    "lng": -73.559666,
    "first_seen": null,
    "last_seen": null,
    "aliases": []
  },
  {
    "name": "Hochelaga / Dézéry",
    "lat": 45.542671,
    "lng": -73.553885,
    "first_seen": null,
    "last_seen": null,
    "aliases": []
  },
  {
    "name": "Hochelaga / de l'Assomption",
    "lat": 45.566883,
    "lng": -73.539438,
    "first_seen": null,
    "last_seen": null,
    "aliases": []
  },
  {
    "name": "Hodge / Laperrière",
    "lat": 45.5137,
    "lng": -73.665077,
    "first_seen": null,
    "last_seen": null,
    "aliases": []
  },
  {
    "name": "Hogan / Ontario",
    "lat": 45.5353,
    "lng": -73.551147,
    "first_seen": null,
    "last_seen": null,
    "aliases": []
  },
  {
    "name": "Holt / Fullum",
    "lat": 45.543937,
    "lng": -73.584446,
    "first_seen": null,
    "last_seen": null,
    "aliases": []
  },
  {
    "name": "Holy-Cross / Eadie",
    "lat": 45.456473,
    "lng": -73.590782,
    "first_seen": null,
    "last_seen": null,
    "aliases": []
  },
  {
    "name": "Honoré Mercier / Arthur-Buies",
    "lat": 45.603838,
    "lng": -73.781893,
    "first_seen": null,
    "last_seen": null,
    "aliases": []
  },
  {
    "name": "Hudson / Goyer",
    "lat": 45.507437,
    "lng": -73.632658,
    "first_seen": null,
    "last_seen": null,
    "aliases": []
  },
  {
    "name": "Hudson / de Kent",
    "lat": 45.505922,
    "lng": -73.629352,
    "first_seen": null,
    "last_seen": null,
    "aliases": []
  },
  {
    "name": "Hurteau / Springland",
    "lat": 45.452972,
    "lng": -73.599349,
    "first_seen": null,
    "last_seen": null,
    "aliases": []
  },
  {
    "name": "Hutchison / Beaubien",
    "lat": 45.526063,
    "lng": -73.61302,
    "first_seen": null,
    "last_seen": null,
    "aliases": []
  },
  {
    "name": "Hutchison / Prince-Arthur",
    "lat": 45.509759,
    "lng": -73.576107,
    "first_seen": null,
    "last_seen": null,
    "aliases": []
  },
  {
    "name": "Hutchison / Van Horne",
    "lat": 45.524959,
    "lng": -73.610609,
    "first_seen": null,
    "last_seen": null,
    "aliases": []
  },
  {
    "name": "Hutchison / des Pins",
    "lat": 45.51069,
    "lng": -73.57805,
    "first_seen": null,
    "last_seen": null,
    "aliases": []
  },
  {
    "name": "Hutchison/ Van Horne",
    "lat": 45.524977,
    "lng": -73.610686,
    "first_seen": null,
    "last_seen": null,
    "aliases": []
  },
  {
    "name": "Hélène-Baillargeon / St-Denis",
    "lat": 45.529739,
    "lng": -73.595232,
    "first_seen": null,
    "last_seen": null,
    "aliases": []
  },
  {
    "name": "Hôpital Général Juif (de la Côte-Ste-Catherine / Légaré)",
    "lat": 45.496241,
    "lng": -73.629839,
    "first_seen": null,
    "last_seen": null,
    "aliases": [
      "Hôpital général juif (de la Côte-Ste-Catherine / Légaré)"
    ]
  },
  {
    "name": "Hôpital Maisonneuve-Rosemont (Rosemont / Chatelain)",
    "lat": 45.57566,
    "lng": -73.561369,
    "first_seen": null,
    "last_seen": null,
    "aliases": []
  },
  {
    "name": "Hôpital Notre-Dame (Alexandre-DeSève)",
    "lat": 45.525184,
    "lng": -73.561896,
    "first_seen": null,
    "last_seen": null,
    "aliases": [
      "Hôpital Notre-Dame (Alexandre-de-Sève)"
    ]
  },
  {
    "name": "Hôpital Pierre-Boucher (Jacques-Cartier / Bourdon)",
    "lat": 45.536532,
    "lng": -73.457669,
    "first_seen": null,
    "last_seen": null,
    "aliases": []
  },
  {
    "name": "Hôpital Sacré-Coeur (Forbes)",
    "lat": 45.531944,
    "lng": -73.713605,
    "first_seen": null,
    "last_seen": null,
    "aliases": []
  },
  {
    "name": "Hôpital Santa Cabrini (St-Zotique / Jeanne-Jugan)",
    "lat": 45.579325,
    "lng": -73.570504,
    "first_seen": null,
    "last_seen": null,
    "aliases": []
  },
  {
    "name": "Hôpital Santa Cabrini (de Pontoise / d'Évreux)",
    "lat": 45.581354,
    "lng": -73.57261,
    "first_seen": null,
    "last_seen": null,
    "aliases": []
  },
  {
    "name": "Hôpital du Sacré-Coeur (Forbes / St-Évariste)",
    "lat": 45.531971,
    "lng": -73.713517,
    "first_seen": null,
    "last_seen": null,
    "aliases": []
  },
  {
    "name": "Hôpital général juif (de la Côte Ste-Catherine / Légaré)",
    "lat": 45.496302,
    "lng": -73.629822,
    "first_seen": null,
    "last_seen": null,
    "aliases": []
  },
  {
    "name": "Hôtel de Ville (Chomedey / Cardinal)",
    "lat": 45.550313,
    "lng": -73.744306,
    "first_seen": null,
    "last_seen": null,
    "aliases": []
  },
  {
    "name": "Hôtel-de-Ville / Viger",
    "lat": 45.509561,
    "lng": -73.557502,
    "first_seen": null,
    "last_seen": null,
    "aliases": []
  },
  {
    "name": "INRS (Cartier O / Armand-Frappier)",
    "lat": 45.545069,
    "lng": -73.720857,
    "first_seen": null,
    "last_seen": null,
    "aliases": []
  },
  {
    "name": "INRS (Cartier O / Armand-Frappier) élec",
    "lat": 45.545084,
    "lng": -73.720674,
    "first_seen": null,
    "last_seen": null,
    "aliases": []
  },
  {
    "name": "INRS Centre Armand-Frappier (Cartier O / Armand-Frappier)",
    "lat": 45.54505,
    "lng": -73.721086,
    "first_seen": null,
    "last_seen": null,
    "aliases": []
  },
  {
    "name": "IUSMM (Georges-Villeneuve)",
    "lat": 45.586592,
    "lng": -73.529562,
    "first_seen": null,
    "last_seen": null,
    "aliases": []
  },
  {
    "name": "Industriel / Dagenais O",
    "lat": 45.59784,
    "lng": -73.751151,
    "first_seen": null,
    "last_seen": null,
    "aliases": []
  },
  {
    "name": "Industriel / Louis-J.-Lafortune",
    "lat": 45.581921,
    "lng": -73.455317,
    "first_seen": null,
    "last_seen": null,
    "aliases": []
  },
  {
    "name": "Industriel / Primeau",
    "lat": 45.569975,
    "lng": -73.921224,
    "first_seen": null,
    "last_seen": null,
    "aliases": []
  },
  {
    "name": "Irene / St-Jacques",
    "lat": 45.480133,
    "lng": -73.583931,
    "first_seen": null,
    "last_seen": null,
    "aliases": []
  },
  {
    "name": "Irwin / Allard",
    "lat": 45.448903,
    "lng": -73.604905,
    "first_seen": null,
    "last_seen": null,
    "aliases": []
  },
  {
    "name": "J J Joubert / Champfleury",
    "lat": 45.578227,
    "lng": -73.675314,
    "first_seen": null,
    "last_seen": null,
    "aliases": []
  },
  {
    "name": "Jacques-Casault / Christophe-Colomb",
    "lat": 45.55205,
    "lng": -73.630197,
    "first_seen": null,
    "last_seen": null,
    "aliases": []
  },
  {
    "name": "Jacques-Casault / Pierre-Dupaigne",
    "lat": 45.552707,
    "lng": -73.628515,
    "first_seen": null,
    "last_seen": null,
    "aliases": []
  },
  {
    "name": "Jacques-Le Ber / de la Pointe Nord",
    "lat": 45.472552,
    "lng": -73.539551,
    "first_seen": null,
    "last_seen": null,
    "aliases": []
  },
  {
    "name": "Jardin Botanique (Pie-IX / Sherbrooke)",
    "lat": 45.554947,
    "lng": -73.555295,
    "first_seen": null,
    "last_seen": null,
    "aliases": []
  },
  {
    "name": "Jardin Botanique Dépôt Fierté (Sherbrooke / Pie-IX)",
    "lat": 45.556792,
    "lng": -73.554647,
    "first_seen": null,
    "last_seen": null,
    "aliases": [
      "Jardin Botanique (Sherbrooke / Pie-IX)",
      "Jardin Botanique dépôt fierté (Sherbrooke / Pie-IX)"
    ]
  },
  {
    "name": "Jean Langlois / Fullum",
    "lat": 45.5265,
    "lng": -73.545753,
    "first_seen": null,
    "last_seen": null,
    "aliases": [
      "Jean-Langlois / Fullum"
    ]
  },
  {
    "name": "Jean-Brillant / Decelles",
    "lat": 45.498164,
    "lng": -73.619597,
    "first_seen": null,
    "last_seen": null,
    "aliases": []
  },
  {
    "name": "Jean-Brillant / de la Côte-des-Neiges",
    "lat": 45.495415,
    "lng": -73.622341,
    "first_seen": null,
    "last_seen": null,
    "aliases": []
  },
  {
    "name": "Jean-Milot / St-Zotique",
    "lat": 45.592182,
    "lng": -73.562477,
    "first_seen": null,
    "last_seen": null,
    "aliases": []
  },
  {
    "name": "Jean-Paul-Vincent / Adoncour",
    "lat": 45.564676,
    "lng": -73.479578,
    "first_seen": null,
    "last_seen": null,
    "aliases": []
  },
  {
    "name": "Jean-Rivard / du Cirque",
    "lat": 45.562687,
    "lng": -73.616512,
    "first_seen": null,
    "last_seen": null,
    "aliases": []
  },
  {
    "name": "Jean-Talon / de l'Épée",
    "lat": 45.527825,
    "lng": -73.623931,
    "first_seen": null,
    "last_seen": null,
    "aliases": []
  },
  {
    "name": "Jean-d’Estrées / Notre-Dame",
    "lat": 45.49439,
    "lng": -73.563911,
    "first_seen": null,
    "last_seen": null,
    "aliases": [
      "Jean-d’Estrées/Notre-Dame"
    ]
  },
  {
    "name": "Jeanne-Mance / Beaubien",
    "lat": 45.52765,
    "lng": -73.6123,
    "first_seen": null,
    "last_seen": null,
    "aliases": []
  },
  {
    "name": "Jeanne-Mance / Fairmount",
    "lat": 45.520984,
    "lng": -73.597281,
    "first_seen": null,
    "last_seen": null,
    "aliases": []
  },
  {
    "name": "Jeanne-Mance / Laurier",
    "lat": 45.520204,
    "lng": -73.59509,
    "first_seen": null,
    "last_seen": null,
    "aliases": []
  },
  {
    "name": "Jeanne-Mance / Milton",
    "lat": 45.510253,
    "lng": -73.573208,
    "first_seen": null,
    "last_seen": null,
    "aliases": [
      "Jeann-Mance / Milton"
    ]
  },
  {
    "name": "Jeanne-Mance / Prince-Arthur",
    "lat": 45.511162,
    "lng": -73.575144,
    "first_seen": null,
    "last_seen": null,
    "aliases": []
  },
  {
    "name": "Jeanne-Mance / René-Lévesque",
    "lat": 45.506371,
    "lng": -73.564201,
    "first_seen": null,
    "last_seen": null,
    "aliases": []
  },
  {
    "name": "Jeanne-Mance / Sherbrooke",
    "lat": 45.509314,
    "lng": -73.571111,
    "first_seen": null,
    "last_seen": null,
    "aliases": []
  },
  {
    "name": "Jeanne-Mance / St-Martin O",
    "lat": 45.557333,
    "lng": -73.747985,
    "first_seen": null,
    "last_seen": null,
    "aliases": []
  },
  {
    "name": "Jeanne-Mance / St-Viateur",
    "lat": 45.523017,
    "lng": -73.601852,
    "first_seen": null,
    "last_seen": null,
    "aliases": []
  },
  {
    "name": "Jeanne-Mance / Van Horne",
    "lat": 45.526319,
    "lng": -73.609252,
    "first_seen": null,
    "last_seen": null,
    "aliases": []
  },
  {
    "name": "Jeanne-d'Arc / Ontario",
    "lat": 45.549598,
    "lng": -73.541874,
    "first_seen": null,
    "last_seen": null,
    "aliases": []
  },
  {
    "name": "Jogues / Allard",
    "lat": 45.45002,
    "lng": -73.600306,
    "first_seen": null,
    "last_seen": null,
    "aliases": []
  },
  {
    "name": "Joseph-Manseau / René-Levesque",
    "lat": 45.491687,
    "lng": -73.576823,
    "first_seen": null,
    "last_seen": null,
    "aliases": [
      "Joseph Manseau / René-Levesque",
      "Joseph-Manseau / René-Lévesque"
    ]
  },
  {
    "name": "Juliette / Lise",
    "lat": 45.433929,
    "lng": -73.630025,
    "first_seen": null,
    "last_seen": null,
    "aliases": []
  },
  {
    "name": "Keller / Cousineau",
    "lat": 45.52355,
    "lng": -73.713886,
    "first_seen": null,
    "last_seen": null,
    "aliases": [
      "REM Bois-Franc (Keller / Cousineau)"
    ]
  },
  {
    "name": "King / de la Commune",
    "lat": 45.497526,
    "lng": -73.553186,
    "first_seen": null,
    "last_seen": null,
    "aliases": []
  },
  {
    "name": "Kirkfield / de Chambois",
    "lat": 45.512933,
    "lng": -73.63389,
    "first_seen": null,
    "last_seen": null,
    "aliases": []
  },
  {
    "name": "La Fontaine / Bossuet",
    "lat": 45.569265,
    "lng": -73.526181,
    "first_seen": null,
    "last_seen": null,
    "aliases": []
  },
  {
    "name": "La Fontaine / Cadillac",
    "lat": 45.569842,
    "lng": -73.525538,
    "first_seen": null,
    "last_seen": null,
    "aliases": []
  },
  {
    "name": "La Fontaine / Lyall",
    "lat": 45.579438,
    "lng": -73.519628,
    "first_seen": null,
    "last_seen": null,
    "aliases": []
  },
  {
    "name": "La Fontaine / Panet",
    "lat": 45.522059,
    "lng": -73.559217,
    "first_seen": null,
    "last_seen": null,
    "aliases": []
  },
  {
    "name": "La Ronde",
    "lat": 45.521565,
    "lng": -73.535332,
    "first_seen": null,
    "last_seen": null,
    "aliases": []
  },
  {
    "name": "La Tour de Montréal (Pierre-de-Coubertin / Bennett)",
    "lat": 45.559705,
    "lng": -73.551554,
    "first_seen": null,
    "last_seen": null,
    "aliases": []
  },
  {
    "name": "LaSalle / 37e avenue",
    "lat": 45.416302,
    "lng": -73.612907,
    "first_seen": null,
    "last_seen": null,
    "aliases": []
  },
  {
    "name": "LaSalle / 80e",
    "lat": 45.415769,
    "lng": -73.637924,
    "first_seen": null,
    "last_seen": null,
    "aliases": []
  },
  {
    "name": "LaSalle / 90e avenue",
    "lat": 45.417577,
    "lng": -73.644856,
    "first_seen": null,
    "last_seen": null,
    "aliases": []
  },
  {
    "name": "LaSalle / Crawford",
    "lat": 45.437915,
    "lng": -73.582628,
    "first_seen": null,
    "last_seen": null,
    "aliases": []
  },
  {
    "name": "LaSalle / Godin",
    "lat": 45.446934,
    "lng": -73.572199,
    "first_seen": null,
    "last_seen": null,
    "aliases": []
  },
  {
    "name": "Labadie / du Parc",
    "lat": 45.51989,
    "lng": -73.596849,
    "first_seen": null,
    "last_seen": null,
    "aliases": []
  },
  {
    "name": "Labonté / du Coteau-Rouge",
    "lat": 45.526787,
    "lng": -73.491537,
    "first_seen": null,
    "last_seen": null,
    "aliases": [
      "Labonté / Coteau-Rouge"
    ]
  },
  {
    "name": "Lacombe / Victoria",
    "lat": 45.490601,
    "lng": -73.628926,
    "first_seen": null,
    "last_seen": null,
    "aliases": []
  },
  {
    "name": "Lafontaine / Islemère",
    "lat": 45.524157,
    "lng": -73.850428,
    "first_seen": null,
    "last_seen": null,
    "aliases": []
  },
  {
    "name": "Lafontaine / Panet",
    "lat": 45.522092,
    "lng": -73.559147,
    "first_seen": null,
    "last_seen": null,
    "aliases": []
  },
  {
    "name": "Laforest / Dudemaine",
    "lat": 45.539806,
    "lng": -73.687266,
    "first_seen": null,
    "last_seen": null,
    "aliases": []
  },
  {
    "name": "Lahaie / Meunier",
    "lat": 45.568224,
    "lng": -73.685906,
    "first_seen": null,
    "last_seen": null,
    "aliases": []
  },
  {
    "name": "Laird / Glencoe",
    "lat": 45.506192,
    "lng": -73.642308,
    "first_seen": null,
    "last_seen": null,
    "aliases": []
  },
  {
    "name": "Lajeunesse / Villeray",
    "lat": 45.542156,
    "lng": -73.622629,
    "first_seen": null,
    "last_seen": null,
    "aliases": []
  },
  {
    "name": "Lajeunesse / de Liège",
    "lat": 45.545627,
    "lng": -73.635012,
    "first_seen": null,
    "last_seen": null,
    "aliases": []
  },
  {
    "name": "Lamarre / Lavallée",
    "lat": 45.533748,
    "lng": -73.485996,
    "first_seen": null,
    "last_seen": null,
    "aliases": []
  },
  {
    "name": "Lambert-Closse / de Maisonneuve",
    "lat": 45.490925,
    "lng": -73.584996,
    "first_seen": null,
    "last_seen": null,
    "aliases": []
  },
  {
    "name": "Lanaudière / Jean-Talon",
    "lat": 45.545391,
    "lng": -73.610492,
    "first_seen": null,
    "last_seen": null,
    "aliases": []
  },
  {
    "name": "Langelier / Marie-Victorin",
    "lat": 45.614497,
    "lng": -73.612109,
    "first_seen": null,
    "last_seen": null,
    "aliases": []
  },
  {
    "name": "Lanouette / de l'Église",
    "lat": 45.463374,
    "lng": -73.576834,
    "first_seen": null,
    "last_seen": null,
    "aliases": []
  },
  {
    "name": "Lapierre / Serge",
    "lat": 45.438544,
    "lng": -73.620216,
    "first_seen": null,
    "last_seen": null,
    "aliases": []
  },
  {
    "name": "Larivière / de Lorimier",
    "lat": 45.529134,
    "lng": -73.559234,
    "first_seen": null,
    "last_seen": null,
    "aliases": []
  },
  {
    "name": "Larivière / du Bord-de-l'Eau",
    "lat": 45.517937,
    "lng": -73.79408,
    "first_seen": null,
    "last_seen": null,
    "aliases": []
  },
  {
    "name": "Lartigue / du Souvenir",
    "lat": 45.563422,
    "lng": -73.718047,
    "first_seen": null,
    "last_seen": null,
    "aliases": []
  },
  {
    "name": "Laurier / Brébeuf",
    "lat": 45.532361,
    "lng": -73.584634,
    "first_seen": null,
    "last_seen": null,
    "aliases": [
      "Brébeuf / Laurier"
    ]
  },
  {
    "name": "Laurier / Chabot",
    "lat": 45.537072,
    "lng": -73.579331,
    "first_seen": null,
    "last_seen": null,
    "aliases": []
  },
  {
    "name": "Laurier / Clark",
    "lat": 45.522566,
    "lng": -73.593138,
    "first_seen": null,
    "last_seen": null,
    "aliases": []
  },
  {
    "name": "Laurier / St-Denis",
    "lat": 45.527153,
    "lng": -73.58945,
    "first_seen": null,
    "last_seen": null,
    "aliases": []
  },
  {
    "name": "Laurier / de Bordeaux",
    "lat": 45.537223,
    "lng": -73.579225,
    "first_seen": null,
    "last_seen": null,
    "aliases": []
  },
  {
    "name": "Laurier / de Brébeuf",
    "lat": 45.532517,
    "lng": -73.584754,
    "first_seen": null,
    "last_seen": null,
    "aliases": []
  },
  {
    "name": "Laval / Duluth",
    "lat": 45.519206,
    "lng": -73.577171,
    "first_seen": null,
    "last_seen": null,
    "aliases": []
  },
  {
    "name": "Laval / Rachel",
    "lat": 45.520207,
    "lng": -73.579488,
    "first_seen": null,
    "last_seen": null,
    "aliases": []
  },
  {
    "name": "Laval / du Mont-Royal",
    "lat": 45.522365,
    "lng": -73.584146,
    "first_seen": null,
    "last_seen": null,
    "aliases": []
  },
  {
    "name": "Lawrence / Miller",
    "lat": 45.481951,
    "lng": -73.470514,
    "first_seen": null,
    "last_seen": null,
    "aliases": []
  },
  {
    "name": "Le Ber / Ste-Madeleine",
    "lat": 45.480417,
    "lng": -73.553164,
    "first_seen": null,
    "last_seen": null,
    "aliases": []
  },
  {
    "name": "Le Corbusier / St-Martin O",
    "lat": 45.565007,
    "lng": -73.731905,
    "first_seen": null,
    "last_seen": null,
    "aliases": []
  },
  {
    "name": "Le Royer / St-Laurent",
    "lat": 45.505974,
    "lng": -73.554299,
    "first_seen": null,
    "last_seen": null,
    "aliases": []
  },
  {
    "name": "Lebrun / Bédard",
    "lat": 45.547064,
    "lng": -73.451962,
    "first_seen": null,
    "last_seen": null,
    "aliases": []
  },
  {
    "name": "Lebrun / Notre-Dame",
    "lat": 45.596537,
    "lng": -73.511667,
    "first_seen": null,
    "last_seen": null,
    "aliases": []
  },
  {
    "name": "Legendre / André-Grasset",
    "lat": 45.558543,
    "lng": -73.638206,
    "first_seen": null,
    "last_seen": null,
    "aliases": []
  },
  {
    "name": "Legrand / Cartier",
    "lat": 45.552298,
    "lng": -73.707383,
    "first_seen": null,
    "last_seen": null,
    "aliases": []
  },
  {
    "name": "Leman / St-Hubert",
    "lat": 45.54769,
    "lng": -73.630693,
    "first_seen": null,
    "last_seen": null,
    "aliases": []
  },
  {
    "name": "Leman / de Chateaubriand",
    "lat": 45.547214,
    "lng": -73.631073,
    "first_seen": null,
    "last_seen": null,
    "aliases": [
      "de Chateaubriand / Leman"
    ]
  },
  {
    "name": "Letourneux / Hochelaga",
    "lat": 45.554659,
    "lng": -73.546603,
    "first_seen": null,
    "last_seen": null,
    "aliases": []
  },
  {
    "name": "Letourneux / Ste-Catherine",
    "lat": 45.550784,
    "lng": -73.5341,
    "first_seen": null,
    "last_seen": null,
    "aliases": []
  },
  {
    "name": "Lincoln / Lambert-Closse",
    "lat": 45.491422,
    "lng": -73.585943,
    "first_seen": null,
    "last_seen": null,
    "aliases": []
  },
  {
    "name": "Lincoln / St-Marc",
    "lat": 45.494122,
    "lng": -73.582634,
    "first_seen": null,
    "last_seen": null,
    "aliases": []
  },
  {
    "name": "Lincoln / St-Mathieu",
    "lat": 45.495037,
    "lng": -73.581576,
    "first_seen": null,
    "last_seen": null,
    "aliases": []
  },
  {
    "name": "Lincoln / du Fort",
    "lat": 45.493051,
    "lng": -73.583831,
    "first_seen": null,
    "last_seen": null,
    "aliases": []
  },
  {
    "name": "Lionel-Groulx / George-Vanier",
    "lat": 45.486221,
    "lng": -73.573744,
    "first_seen": null,
    "last_seen": null,
    "aliases": []
  },
  {
    "name": "Lionel-Groulx / Georges-Vanier",
    "lat": 45.48634,
    "lng": -73.573558,
    "first_seen": null,
    "last_seen": null,
    "aliases": []
  },
  {
    "name": "Lionel-Groulx / Vinet",
    "lat": 45.484668,
    "lng": -73.576275,
    "first_seen": null,
    "last_seen": null,
    "aliases": []
  },
  {
    "name": "Liébert / Hochelaga",
    "lat": 45.595875,
    "lng": -73.523528,
    "first_seen": null,
    "last_seen": null,
    "aliases": []
  },